[
  {
    "Latitude": 36.164556,
    "Longitude": -86.77738,
    "Pin Type": "familyPin",
    "id": 1,
    "Name": "Encore Herb Garden",
    "Size": "planter_box_etc",
    "City": "Nashville",
    "Country": "TN",
    "Zip/Postal Code": 37201
  },
  {
    "Latitude": 42.488735,
    "Longitude": -83.13752,
    "Pin Type": "friendPin",
    "id": 2,
    "Name": "damoff",
    "Size": "small_10x10",
    "City": "Royal Oak",
    "Country": "Mi",
    "Zip/Postal Code": 48067
  },
  {
    "Latitude": 42.499335,
    "Longitude": -83.22829,
    "Pin Type": "familyPin",
    "id": 3,
    "Name": "Pleasureville",
    "Size": "small_10x10",
    "City": "Southfield",
    "Country": "Mi",
    "Zip/Postal Code": 48076
  },
  {
    "Latitude": 54.5704551,
    "Longitude": -1.32898209999996,
    "Pin Type": "friendPin",
    "id": 4,
    "Name": "Blakeston Eco Garden",
    "Size": "large_over_20x20",
    "City": "Stockton-On-Tees",
    "Country": "Cl",
    "Zip/Postal Code": "TS19"
  },
  {
    "Latitude": 54.612537,
    "Longitude": -1.29096100000004,
    "Pin Type": "familyPin",
    "id": 5,
    "Name": "Bede Eco Garden",
    "Size": "large_over_20x20",
    "City": "Billingham",
    "Country": "Te",
    "Zip/Postal Code": "TS23"
  },
  {
    "Latitude": 54.132775,
    "Longitude": -0.783321000000001,
    "Pin Type": "familyPin",
    "id": 6,
    "Name": "Saddington garden",
    "Size": "small_10x10",
    "City": "Norton",
    "Country": "Cl",
    "Zip/Postal Code": "TS20"
  },
  {
    "Latitude": 42.396736,
    "Longitude": -83.14152,
    "Pin Type": "familyPin",
    "id": 7,
    "Name": "Dreams Come True",
    "Size": "small_10x10",
    "City": "Detroit",
    "Country": "MI",
    "Zip/Postal Code": 48238
  },
  {
    "Latitude": 47.497912,
    "Longitude": 19.0402349999999,
    "Pin Type": "familyPin",
    "id": 8,
    "Name": "Susus kitchen",
    "Size": "planter_box_etc",
    "City": "Budapest",
    "Country": "Bu",
    "Zip/Postal Code": 0
  },
  {
    "Latitude": 40.841522,
    "Longitude": -73.28001,
    "Pin Type": "familyPin",
    "id": 9,
    "Name": "7 Angelica Farms",
    "Size": "large_over_20x20",
    "City": "Commack",
    "Country": "NY",
    "Zip/Postal Code": 11725
  },
  {
    "Latitude": 34.029112,
    "Longitude": -118.3183,
    "Pin Type": "friendPin",
    "id": 10,
    "Name": "Garden School Foundation",
    "Size": "large_over_20x20",
    "City": "Los Angeles",
    "Country": "CA",
    "Zip/Postal Code": 90018
  },
  {
    "Latitude": 35.767829,
    "Longitude": -78.5861,
    "Pin Type": "friendPin",
    "id": 11,
    "Name": "Word of God Fellowship Church",
    "Size": "medium_20x20",
    "City": "Raleigh",
    "Country": "NC",
    "Zip/Postal Code": 27610
  },
  {
    "Latitude": 39.961612,
    "Longitude": -75.19957,
    "Pin Type": "friendPin",
    "id": 12,
    "Name": "Woodland Presbyterian Church",
    "Size": "medium_20x20",
    "City": "Philadelphia",
    "Country": "PA",
    "Zip/Postal Code": 19104
  },
  {
    "Latitude": 39.173409,
    "Longitude": -84.51295,
    "Pin Type": "friendPin",
    "id": 13,
    "Name": "Winton Hills Recreation",
    "Size": "medium_20x20",
    "City": "Cincinnati",
    "Country": "OH",
    "Zip/Postal Code": 45232
  },
  {
    "Latitude": 42.5065,
    "Longitude": -83.35363,
    "Pin Type": "friendPin",
    "id": 14,
    "Name": "West End",
    "Size": "medium_20x20",
    "City": "Detroit",
    "Country": "MI",
    "Zip/Postal Code": 48334
  },
  {
    "Latitude": 38.676851,
    "Longitude": -90.24009,
    "Pin Type": "friendPin",
    "id": 15,
    "Name": "Wesley House",
    "Size": "medium_20x20",
    "City": "St. Louis",
    "Country": "MO",
    "Zip/Postal Code": 63115
  },
  {
    "Latitude": 34.044662,
    "Longitude": -118.24255,
    "Pin Type": "friendPin",
    "id": 16,
    "Name": "Weingart Center",
    "Size": "medium_20x20",
    "City": "Los Angeles",
    "Country": "CA",
    "Zip/Postal Code": 90013
  },
  {
    "Latitude": 38.691901,
    "Longitude": -90.25992,
    "Pin Type": "friendPin",
    "id": 17,
    "Name": "Walbridge CESS",
    "Size": "medium_20x20",
    "City": "St. Louis",
    "Country": "MO",
    "Zip/Postal Code": 63120
  },
  {
    "Latitude": 44.971798,
    "Longitude": -93.30273,
    "Pin Type": "friendPin",
    "id": 18,
    "Name": "Van White",
    "Size": "medium_20x20",
    "City": "Minneapolis",
    "Country": "MN",
    "Zip/Postal Code": 55405
  },
  {
    "Latitude": 42.5065,
    "Longitude": -83.35363,
    "Pin Type": "friendPin",
    "id": 19,
    "Name": "Van Dyke and Knodell",
    "Size": "medium_20x20",
    "City": "Detroit",
    "Country": "MI",
    "Zip/Postal Code": 48334
  },
  {
    "Latitude": 38.836145,
    "Longitude": -77.00058,
    "Pin Type": "friendPin",
    "id": 20,
    "Name": "Valley Site",
    "Size": "medium_20x20",
    "City": "Washington",
    "Country": "DC",
    "Zip/Postal Code": 20032
  },
  {
    "Latitude": 34.026448,
    "Longitude": -118.2829,
    "Pin Type": "friendPin",
    "id": 21,
    "Name": "USC",
    "Size": "medium_20x20",
    "City": "Los Angeles",
    "Country": "CA",
    "Zip/Postal Code": 90007
  },
  {
    "Latitude": 44.934915,
    "Longitude": -93.25424,
    "Pin Type": "friendPin",
    "id": 22,
    "Name": "Urban Arts Academy",
    "Size": "medium_20x20",
    "City": "Minneapolis",
    "Country": "MN",
    "Zip/Postal Code": 55407
  },
  {
    "Latitude": 38.907711,
    "Longitude": -77.01732,
    "Pin Type": "friendPin",
    "id": 23,
    "Name": "UPO",
    "Size": "medium_20x20",
    "City": "Washington",
    "Country": "DC",
    "Zip/Postal Code": 20001
  },
  {
    "Latitude": 35.997193,
    "Longitude": -78.89731,
    "Pin Type": "friendPin",
    "id": 24,
    "Name": "Union Baptist Church",
    "Size": "medium_20x20",
    "City": "Durham",
    "Country": "NC",
    "Zip/Postal Code": 27701
  },
  {
    "Latitude": 44.999165,
    "Longitude": -93.29823,
    "Pin Type": "friendPin",
    "id": 25,
    "Name": "U-WHO Garden",
    "Size": "medium_20x20",
    "City": "Minneapolis",
    "Country": "MN",
    "Zip/Postal Code": 55411
  },
  {
    "Latitude": 40.820012,
    "Longitude": -74.36474,
    "Pin Type": "friendPin",
    "id": 26,
    "Name": "TRISCUIT HQ",
    "Size": "medium_20x20",
    "City": "Hanover",
    "Country": "NJ",
    "Zip/Postal Code": 7936
  },
  {
    "Latitude": 39.784622,
    "Longitude": -104.96214,
    "Pin Type": "friendPin",
    "id": 27,
    "Name": "The Growhaus",
    "Size": "medium_20x20",
    "City": "Denver",
    "Country": "CO",
    "Zip/Postal Code": 80216
  },
  {
    "Latitude": 34.007063,
    "Longitude": -118.25868,
    "Pin Type": "friendPin",
    "id": 28,
    "Name": "The Accelerated School",
    "Size": "medium_20x20",
    "City": "Los Angeles",
    "Country": "CA",
    "Zip/Postal Code": 90011
  },
  {
    "Latitude": 39.698137,
    "Longitude": -105.03483,
    "Pin Type": "friendPin",
    "id": 29,
    "Name": "SWIC",
    "Size": "medium_20x20",
    "City": "Denver",
    "Country": "CO",
    "Zip/Postal Code": 80219
  },
  {
    "Latitude": 35.640589,
    "Longitude": -120.70418,
    "Pin Type": "friendPin",
    "id": 30,
    "Name": "Steinbeck Vineyards & Winery",
    "Size": "medium_20x20",
    "City": "Paso Robles",
    "Country": "CA",
    "Zip/Postal Code": 93446
  },
  {
    "Latitude": 38.631551,
    "Longitude": -90.193,
    "Pin Type": "friendPin",
    "id": 31,
    "Name": "St Louis Rams",
    "Size": "medium_20x20",
    "City": "St. Louis",
    "Country": "MO",
    "Zip/Postal Code": 63101
  },
  {
    "Latitude": 44.953665,
    "Longitude": -93.15922,
    "Pin Type": "friendPin",
    "id": 32,
    "Name": "SPROUT at Hamline Church",
    "Size": "medium_20x20",
    "City": "St. Paul",
    "Country": "MN",
    "Zip/Postal Code": 55104
  },
  {
    "Latitude": 44.953665,
    "Longitude": -93.15922,
    "Pin Type": "friendPin",
    "id": 33,
    "Name": "SPROUT at Hamline",
    "Size": "medium_20x20",
    "City": "St. Paul",
    "Country": "MN",
    "Zip/Postal Code": 55104
  },
  {
    "Latitude": 39.759386,
    "Longitude": -104.91945,
    "Pin Type": "friendPin",
    "id": 34,
    "Name": "Senator Site",
    "Size": "medium_20x20",
    "City": "Denver",
    "Country": "CO",
    "Zip/Postal Code": 80207
  },
  {
    "Latitude": 42.488735,
    "Longitude": -83.13752,
    "Pin Type": "friendPin",
    "id": 35,
    "Name": "Royal Oak Farm",
    "Size": "medium_20x20",
    "City": "Detroit",
    "Country": "MI",
    "Zip/Postal Code": 48067
  },
  {
    "Latitude": 34.259052,
    "Longitude": -118.59426,
    "Pin Type": "friendPin",
    "id": 36,
    "Name": "Ride On",
    "Size": "medium_20x20",
    "City": "Chatsworth",
    "Country": "CA",
    "Zip/Postal Code": 91311
  },
  {
    "Latitude": 34.03457,
    "Longitude": -118.42843,
    "Pin Type": "friendPin",
    "id": 37,
    "Name": "Richland Avenue Elementary School",
    "Size": "medium_20x20",
    "City": "Los Angeles",
    "Country": "CA",
    "Zip/Postal Code": 90064
  },
  {
    "Latitude": 27.993498,
    "Longitude": -82.40914,
    "Pin Type": "friendPin",
    "id": 38,
    "Name": "Project NOW",
    "Size": "medium_20x20",
    "City": "Tampa",
    "Country": "FL",
    "Zip/Postal Code": 33610
  },
  {
    "Latitude": 33.962714,
    "Longitude": -118.276,
    "Pin Type": "friendPin",
    "id": 39,
    "Name": "Praises of Zion/Personal Involvement Center",
    "Size": "medium_20x20",
    "City": "Los Angeles",
    "Country": "CA",
    "Zip/Postal Code": 90003
  },
  {
    "Latitude": 45.011215,
    "Longitude": -93.15536,
    "Pin Type": "friendPin",
    "id": 40,
    "Name": "Peace Lutheran",
    "Size": "medium_20x20",
    "City": "Lauderdale",
    "Country": "MN",
    "Zip/Postal Code": 55113
  },
  {
    "Latitude": 33.727807,
    "Longitude": -84.41983,
    "Pin Type": "friendPin",
    "id": 41,
    "Name": "PCIA",
    "Size": "medium_20x20",
    "City": "Atlanta",
    "Country": "GA",
    "Zip/Postal Code": 30310
  },
  {
    "Latitude": 41.695434,
    "Longitude": -87.62255,
    "Pin Type": "friendPin",
    "id": 42,
    "Name": "Parnell Community Garden",
    "Size": "medium_20x20",
    "City": "Chicago",
    "Country": "IL",
    "Zip/Postal Code": 60628
  },
  {
    "Latitude": 47.6062095,
    "Longitude": -122.3320708,
    "Pin Type": "friendPin",
    "id": 43,
    "Name": "Park Place",
    "Size": "medium_20x20",
    "City": "Seattle",
    "Country": "WA",
    "Zip/Postal Code": 98216
  },
  {
    "Latitude": 42.5065,
    "Longitude": -83.35363,
    "Pin Type": "friendPin",
    "id": 44,
    "Name": "Operation Get Down",
    "Size": "medium_20x20",
    "City": "Detroit",
    "Country": "MI",
    "Zip/Postal Code": 48334
  },
  {
    "Latitude": 42.033313,
    "Longitude": -87.75764,
    "Pin Type": "friendPin",
    "id": 45,
    "Name": "Oakton Community College",
    "Size": "medium_20x20",
    "City": "Skokie",
    "Country": "IL",
    "Zip/Postal Code": 60077
  },
  {
    "Latitude": 44.999165,
    "Longitude": -93.29823,
    "Pin Type": "friendPin",
    "id": 46,
    "Name": "NorthPoint",
    "Size": "medium_20x20",
    "City": "Minneapolis",
    "Country": "MN",
    "Zip/Postal Code": 55411
  },
  {
    "Latitude": 33.466392,
    "Longitude": -112.04875,
    "Pin Type": "friendPin",
    "id": 47,
    "Name": "New Hope in Christ Church",
    "Size": "medium_20x20",
    "City": "Phoenix",
    "Country": "AZ",
    "Zip/Postal Code": 85006
  },
  {
    "Latitude": 41.850532,
    "Longitude": -87.6699,
    "Pin Type": "friendPin",
    "id": 48,
    "Name": "Moraine Valley Comm. College",
    "Size": "medium_20x20",
    "City": "Chicago",
    "Country": "IL",
    "Zip/Postal Code": 60608
  },
  {
    "Latitude": 34.052561,
    "Longitude": -118.26434,
    "Pin Type": "friendPin",
    "id": 49,
    "Name": "Miguel Contreras Learning Complex",
    "Size": "medium_20x20",
    "City": "Los Angeles",
    "Country": "CA",
    "Zip/Postal Code": 90017
  },
  {
    "Latitude": 42.5065,
    "Longitude": -83.35363,
    "Pin Type": "friendPin",
    "id": 50,
    "Name": "Midland/Princeston",
    "Size": "medium_20x20",
    "City": "Detroit",
    "Country": "MI",
    "Zip/Postal Code": 48334
  },
  {
    "Latitude": 36.362525,
    "Longitude": -94.23308,
    "Pin Type": "friendPin",
    "id": 51,
    "Name": "Metro Market",
    "Size": "medium_20x20",
    "City": "Bentonville",
    "Country": "AR",
    "Zip/Postal Code": 72712
  },
  {
    "Latitude": 42.5065,
    "Longitude": -83.35363,
    "Pin Type": "friendPin",
    "id": 52,
    "Name": "Martha Ann",
    "Size": "medium_20x20",
    "City": "Detroit",
    "Country": "MI",
    "Zip/Postal Code": 48334
  },
  {
    "Latitude": 33.960041,
    "Longitude": -118.3949,
    "Pin Type": "friendPin",
    "id": 53,
    "Name": "Loyola Marymount University",
    "Size": "medium_20x20",
    "City": "Los Angeles",
    "Country": "CA",
    "Zip/Postal Code": 90045
  },
  {
    "Latitude": 34.000219,
    "Longitude": -118.22605,
    "Pin Type": "friendPin",
    "id": 54,
    "Name": "Los Angeles Regional Food Bank",
    "Size": "medium_20x20",
    "City": "Vernon",
    "Country": "CA",
    "Zip/Postal Code": 90058
  },
  {
    "Latitude": 38.656701,
    "Longitude": -90.24397,
    "Pin Type": "friendPin",
    "id": 55,
    "Name": "Lewis Place",
    "Size": "medium_20x20",
    "City": "St. Louis",
    "Country": "MO",
    "Zip/Postal Code": 63113
  },
  {
    "Latitude": 44.999165,
    "Longitude": -93.29823,
    "Pin Type": "friendPin",
    "id": 56,
    "Name": "Kwanzaa Comm. Church",
    "Size": "medium_20x20",
    "City": "Minneapolis",
    "Country": "MN",
    "Zip/Postal Code": 55411
  },
  {
    "Latitude": 41.764779,
    "Longitude": -88.14579,
    "Pin Type": "friendPin",
    "id": 57,
    "Name": "Kraft HQ in Naperville",
    "Size": "medium_20x20",
    "City": "Naperville",
    "Country": "IL",
    "Zip/Postal Code": 60540
  },
  {
    "Latitude": 42.395904,
    "Longitude": -82.99632,
    "Pin Type": "friendPin",
    "id": 58,
    "Name": "Kettering High School",
    "Size": "medium_20x20",
    "City": "Detroit",
    "Country": "MI",
    "Zip/Postal Code": 48213
  },
  {
    "Latitude": 40.81321,
    "Longitude": -73.88755,
    "Pin Type": "friendPin",
    "id": 59,
    "Name": "Huntspointe Riverside",
    "Size": "medium_20x20",
    "City": "South Bronx",
    "Country": "NY",
    "Zip/Postal Code": 10474
  },
  {
    "Latitude": 44.999165,
    "Longitude": -93.29823,
    "Pin Type": "friendPin",
    "id": 60,
    "Name": "Homewood Apartments",
    "Size": "medium_20x20",
    "City": "Minneapolis",
    "Country": "MN",
    "Zip/Postal Code": 55411
  },
  {
    "Latitude": 34.052561,
    "Longitude": -118.26434,
    "Pin Type": "friendPin",
    "id": 61,
    "Name": "Homegirl Caf&Aring;&frac12;/Homeboy Industries",
    "Size": "medium_20x20",
    "City": "Los Angeles",
    "Country": "CA",
    "Zip/Postal Code": 90017
  },
  {
    "Latitude": 33.960041,
    "Longitude": -118.3949,
    "Pin Type": "friendPin",
    "id": 62,
    "Name": "Holy Nativity Episcopal Church",
    "Size": "medium_20x20",
    "City": "Westchester",
    "Country": "CA",
    "Zip/Postal Code": 90045
  },
  {
    "Latitude": 42.375237,
    "Longitude": -83.07837,
    "Pin Type": "friendPin",
    "id": 63,
    "Name": "Herman Kiefer Complex",
    "Size": "medium_20x20",
    "City": "Detroit",
    "Country": "MI",
    "Zip/Postal Code": 48202
  },
  {
    "Latitude": 44.964115,
    "Longitude": -93.12261,
    "Pin Type": "friendPin",
    "id": 64,
    "Name": "Greater Frogtown CDC",
    "Size": "medium_20x20",
    "City": "St. Paul",
    "Country": "MN",
    "Zip/Postal Code": 55103
  },
  {
    "Latitude": 44.982515,
    "Longitude": -93.17489,
    "Pin Type": "friendPin",
    "id": 65,
    "Name": "Great River School",
    "Size": "medium_20x20",
    "City": "St. Paul",
    "Country": "MN",
    "Zip/Postal Code": 55108
  },
  {
    "Latitude": 44.913815,
    "Longitude": -93.17459,
    "Pin Type": "friendPin",
    "id": 66,
    "Name": "Graham Place",
    "Size": "medium_20x20",
    "City": "St. Paul",
    "Country": "MN",
    "Zip/Postal Code": 55116
  },
  {
    "Latitude": 32.710082,
    "Longitude": -96.7972,
    "Pin Type": "friendPin",
    "id": 67,
    "Name": "Gilgal Baptist Church",
    "Size": "medium_20x20",
    "City": "Dallas",
    "Country": "TX",
    "Zip/Postal Code": 75216
  },
  {
    "Latitude": 42.5065,
    "Longitude": -83.35363,
    "Pin Type": "friendPin",
    "id": 68,
    "Name": "Gateway",
    "Size": "medium_20x20",
    "City": "Detroit",
    "Country": "MI",
    "Zip/Postal Code": 48334
  },
  {
    "Latitude": 42.2771417,
    "Longitude": -71.0913748,
    "Pin Type": "friendPin",
    "id": 69,
    "Name": "Gallivan Com. Center",
    "Size": "medium_20x20",
    "City": "Mattapan",
    "Country": "MA",
    "Zip/Postal Code": 2126
  },
  {
    "Latitude": 39.15201,
    "Longitude": -84.38348,
    "Pin Type": "friendPin",
    "id": 70,
    "Name": "Gaines United Methodist Church",
    "Size": "medium_20x20",
    "City": "Cincinnati",
    "Country": "OH",
    "Zip/Postal Code": 45227
  },
  {
    "Latitude": 40.900819,
    "Longitude": -73.90347,
    "Pin Type": "friendPin",
    "id": 71,
    "Name": "Friends of Van Cortland Park",
    "Size": "medium_20x20",
    "City": "Bronx",
    "Country": "NY",
    "Zip/Postal Code": 10471
  },
  {
    "Latitude": 40.805968,
    "Longitude": -73.91628,
    "Pin Type": "friendPin",
    "id": 72,
    "Name": "Friends of Brook Park",
    "Size": "medium_20x20",
    "City": "Bronx",
    "Country": "NY",
    "Zip/Postal Code": 10454
  },
  {
    "Latitude": 42.567543,
    "Longitude": -83.149978,
    "Pin Type": "friendPin",
    "id": 73,
    "Name": "Fox 2 News",
    "Size": "medium_20x20",
    "City": "Detroit",
    "Country": "MI",
    "Zip/Postal Code": 48037
  },
  {
    "Latitude": 42.3875968,
    "Longitude": -71.0994968,
    "Pin Type": "friendPin",
    "id": 74,
    "Name": "First Congregational Church of Somerville",
    "Size": "medium_20x20",
    "City": "Somerville",
    "Country": "MA",
    "Zip/Postal Code": 2144
  },
  {
    "Latitude": 41.719933,
    "Longitude": -87.70249,
    "Pin Type": "friendPin",
    "id": 75,
    "Name": "Evergreen Park",
    "Size": "medium_20x20",
    "City": "Chicago",
    "Country": "IL",
    "Zip/Postal Code": 60805
  },
  {
    "Latitude": 42.375787,
    "Longitude": -83.10849,
    "Pin Type": "friendPin",
    "id": 76,
    "Name": "Elmhurst Home",
    "Size": "medium_20x20",
    "City": "Detroit",
    "Country": "MI",
    "Zip/Postal Code": 48206
  },
  {
    "Latitude": 42.5065,
    "Longitude": -83.35363,
    "Pin Type": "friendPin",
    "id": 77,
    "Name": "E. Grand Blvd & Lafayette",
    "Size": "medium_20x20",
    "City": "Detroit",
    "Country": "MI",
    "Zip/Postal Code": 48334
  },
  {
    "Latitude": 44.953665,
    "Longitude": -93.15922,
    "Pin Type": "friendPin",
    "id": 78,
    "Name": "Dunning Community Garden",
    "Size": "medium_20x20",
    "City": "St. Paul",
    "Country": "MN",
    "Zip/Postal Code": 55104
  },
  {
    "Latitude": 42.352837,
    "Longitude": -83.02449,
    "Pin Type": "friendPin",
    "id": 79,
    "Name": "Cutters Bar and Grill",
    "Size": "medium_20x20",
    "City": "Detroit",
    "Country": "MI",
    "Zip/Postal Code": 48207
  },
  {
    "Latitude": 44.989065,
    "Longitude": -93.10666,
    "Pin Type": "friendPin",
    "id": 80,
    "Name": "Crossroads Elementary",
    "Size": "medium_20x20",
    "City": "St. Paul",
    "Country": "MN",
    "Zip/Postal Code": 55117
  },
  {
    "Latitude": 45.014764,
    "Longitude": -93.33965,
    "Pin Type": "friendPin",
    "id": 81,
    "Name": "Courage Center",
    "Size": "medium_20x20",
    "City": "Golden Valley",
    "Country": "MN",
    "Zip/Postal Code": 55422
  },
  {
    "Latitude": 44.967565,
    "Longitude": -93.05001,
    "Pin Type": "friendPin",
    "id": 82,
    "Name": "Cornerstone Montessori",
    "Size": "medium_20x20",
    "City": "St. Paul",
    "Country": "MN",
    "Zip/Postal Code": 55106
  },
  {
    "Latitude": 38.79505,
    "Longitude": -90.28578,
    "Pin Type": "friendPin",
    "id": 83,
    "Name": "Computer Village",
    "Size": "medium_20x20",
    "City": "Florissant",
    "Country": "MO",
    "Zip/Postal Code": 63033
  },
  {
    "Latitude": 39.15201,
    "Longitude": -84.38348,
    "Pin Type": "friendPin",
    "id": 84,
    "Name": "Cincinnati Bibleway Church",
    "Size": "medium_20x20",
    "City": "Cincinnati",
    "Country": "OH",
    "Zip/Postal Code": 45227
  },
  {
    "Latitude": 42.421936,
    "Longitude": -83.09981,
    "Pin Type": "friendPin",
    "id": 85,
    "Name": "Christian Guidance Center",
    "Size": "medium_20x20",
    "City": "Detroit",
    "Country": "MI",
    "Zip/Postal Code": 48203
  },
  {
    "Latitude": 42.5065,
    "Longitude": -83.35363,
    "Pin Type": "friendPin",
    "id": 86,
    "Name": "Christian Guidance Center",
    "Size": "medium_20x20",
    "City": "Detroit",
    "Country": "MI",
    "Zip/Postal Code": 48334
  },
  {
    "Latitude": 34.067409,
    "Longitude": -118.47528,
    "Pin Type": "friendPin",
    "id": 87,
    "Name": "Chabad Israel Center School",
    "Size": "medium_20x20",
    "City": "Los Angeles",
    "Country": "CA",
    "Zip/Postal Code": 90049
  },
  {
    "Latitude": 42.536402,
    "Longitude": -82.95044,
    "Pin Type": "friendPin",
    "id": 88,
    "Name": "Central High School",
    "Size": "medium_20x20",
    "City": "Detroit",
    "Country": "MI",
    "Zip/Postal Code": 48026
  },
  {
    "Latitude": 33.927471,
    "Longitude": -118.24778,
    "Pin Type": "friendPin",
    "id": 89,
    "Name": "Carver Elementary",
    "Size": "medium_20x20",
    "City": "Los Angeles",
    "Country": "CA",
    "Zip/Postal Code": 90059
  },
  {
    "Latitude": 45.027715,
    "Longitude": -93.30337,
    "Pin Type": "friendPin",
    "id": 90,
    "Name": "Camden Apartments",
    "Size": "medium_20x20",
    "City": "Minneapolis",
    "Country": "MN",
    "Zip/Postal Code": 55412
  },
  {
    "Latitude": 42.3875968,
    "Longitude": -71.0994968,
    "Pin Type": "friendPin",
    "id": 91,
    "Name": "Cambridge Health Alliance (CHA)",
    "Size": "medium_20x20",
    "City": "Somerville",
    "Country": "MA",
    "Zip/Postal Code": 2143
  },
  {
    "Latitude": 40.826201,
    "Longitude": -73.94879,
    "Pin Type": "friendPin",
    "id": 92,
    "Name": "Brotherhood 7 Sistersol",
    "Size": "medium_20x20",
    "City": "New York",
    "Country": "NY",
    "Zip/Postal Code": 10031
  },
  {
    "Latitude": 44.999165,
    "Longitude": -93.29823,
    "Pin Type": "friendPin",
    "id": 93,
    "Name": "Bright Water Montessori",
    "Size": "medium_20x20",
    "City": "Minneapolis",
    "Country": "MN",
    "Zip/Postal Code": 55411
  },
  {
    "Latitude": 34.067409,
    "Longitude": -118.47528,
    "Pin Type": "friendPin",
    "id": 94,
    "Name": "Brentwood Science Magnet School",
    "Size": "medium_20x20",
    "City": "Los Angeles",
    "Country": "CA",
    "Zip/Postal Code": 90049
  },
  {
    "Latitude": 45.027715,
    "Longitude": -93.30337,
    "Pin Type": "friendPin",
    "id": 95,
    "Name": "Breen Jones",
    "Size": "medium_20x20",
    "City": "Minneapolis",
    "Country": "MN",
    "Zip/Postal Code": 55412
  },
  {
    "Latitude": 42.338137,
    "Longitude": -83.12785,
    "Pin Type": "friendPin",
    "id": 96,
    "Name": "Boys &amp; Girls Club",
    "Size": "medium_20x20",
    "City": "Detroit",
    "Country": "MI",
    "Zip/Postal Code": 48210
  },
  {
    "Latitude": 42.5065,
    "Longitude": -83.35363,
    "Pin Type": "friendPin",
    "id": 97,
    "Name": "Birmingham Temple",
    "Size": "medium_20x20",
    "City": "Detroit",
    "Country": "MI",
    "Zip/Postal Code": 48334
  },
  {
    "Latitude": 33.496091,
    "Longitude": -112.21405,
    "Pin Type": "friendPin",
    "id": 98,
    "Name": "Abundant Life Center",
    "Size": "medium_20x20",
    "City": "Phoenix",
    "Country": "AZ",
    "Zip/Postal Code": 85033
  },
  {
    "Latitude": 44.999165,
    "Longitude": -93.29823,
    "Pin Type": "friendPin",
    "id": 99,
    "Name": "12th and Morgan",
    "Size": "medium_20x20",
    "City": "Minneapolis",
    "Country": "MN",
    "Zip/Postal Code": 55411
  },
  {
    "Latitude": 42.365337,
    "Longitude": -83.14254,
    "Pin Type": "friendPin",
    "id": 100,
    "Name": "Care N Share",
    "Size": "large_over_20x20",
    "City": "Detroit",
    "Country": "MI",
    "Zip/Postal Code": 48204
  },
  {
    "Latitude": 42.348937,
    "Longitude": -83.08994,
    "Pin Type": "familyPin",
    "id": 101,
    "Name": "The Browns",
    "Size": "large_over_20x20",
    "City": "Detroit",
    "Country": "Mi",
    "Zip/Postal Code": 48208
  },
  {
    "Latitude": 34.143856,
    "Longitude": -118.39429,
    "Pin Type": "familyPin",
    "id": 102,
    "Name": "Mi Jardin",
    "Size": "planter_box_etc",
    "City": "studio city",
    "Country": "Ca",
    "Zip/Postal Code": 91604
  },
  {
    "Latitude": 42.375787,
    "Longitude": -83.10849,
    "Pin Type": "friendPin",
    "id": 103,
    "Name": "Linwood & Clairmount",
    "Size": "large_over_20x20",
    "City": "Detroit",
    "Country": "MI",
    "Zip/Postal Code": 48206
  },
  {
    "Latitude": 42.410037,
    "Longitude": -83.05826,
    "Pin Type": "friendPin",
    "id": 104,
    "Name": "Sunshine garden",
    "Size": "small_10x10",
    "City": "Hamtramck",
    "Country": "Mi",
    "Zip/Postal Code": 48212
  },
  {
    "Latitude": 42.426786,
    "Longitude": -83.14969,
    "Pin Type": "familyPin",
    "id": 105,
    "Name": "Memas Doll",
    "Size": "planter_box_etc",
    "City": "Detroit",
    "Country": "Mi",
    "Zip/Postal Code": 48221
  },
  {
    "Latitude": 18.4088387,
    "Longitude": -77.9334851,
    "Pin Type": "familyPin",
    "id": 106,
    "Name": "Anchovy Primary School",
    "Size": "medium_20x20",
    "City": "Anchoby",
    "Country": "St",
    "Zip/Postal Code": 0
  },
  {
    "Latitude": 38.96634,
    "Longitude": -104.54313,
    "Pin Type": "friendPin",
    "id": 107,
    "Name": "Horsewings Creative Garden",
    "Size": "medium_20x20",
    "City": "Peyton",
    "Country": "CO",
    "Zip/Postal Code": 80831
  },
  {
    "Latitude": 42.375787,
    "Longitude": -83.10849,
    "Pin Type": "familyPin",
    "id": 108,
    "Name": "Petties Playground",
    "Size": "planter_box_etc",
    "City": "Detroit",
    "Country": "Mi",
    "Zip/Postal Code": 48206
  },
  {
    "Latitude": 33.2000368,
    "Longitude": -117.2425355,
    "Pin Type": "friendPin",
    "id": 109,
    "Name": "Happy Earth Garden",
    "Size": "medium_20x20",
    "City": "Vista",
    "Country": "Ca",
    "Zip/Postal Code": 92081
  },
  {
    "Latitude": 34.063209,
    "Longitude": -118.43643,
    "Pin Type": "familyPin",
    "id": 110,
    "Name": "Kathleens garden",
    "Size": "medium_20x20",
    "City": "Los Angeles",
    "Country": "Ca",
    "Zip/Postal Code": 90024
  },
  {
    "Latitude": 29.054976,
    "Longitude": -82.04255,
    "Pin Type": "familyPin",
    "id": 111,
    "Name": "Small Greens",
    "Size": "planter_box_etc",
    "City": "Belleview",
    "Country": "Fl",
    "Zip/Postal Code": 34420
  },
  {
    "Latitude": 34.098908,
    "Longitude": -118.36241,
    "Pin Type": "familyPin",
    "id": 112,
    "Name": "LaGarden",
    "Size": "planter_box_etc",
    "City": "Los Angeles",
    "Country": "CA",
    "Zip/Postal Code": 90046
  },
  {
    "Latitude": 34.088808,
    "Longitude": -118.40612,
    "Pin Type": "familyPin",
    "id": 113,
    "Name": "Almost paradise",
    "Size": "small_10x10",
    "City": "Beverly hills",
    "Country": "Ca",
    "Zip/Postal Code": 90210
  },
  {
    "Latitude": 34.151066,
    "Longitude": -118.08974,
    "Pin Type": "familyPin",
    "id": 114,
    "Name": "pasadenia",
    "Size": "small_10x10",
    "City": "pasadenia",
    "Country": "ca",
    "Zip/Postal Code": 91107
  },
  {
    "Latitude": 47.2528768,
    "Longitude": -122.4442906,
    "Pin Type": "familyPin",
    "id": 115,
    "Name": "Grandpas Garden",
    "Size": "small_10x10",
    "City": "Tacoma",
    "Country": "WA",
    "Zip/Postal Code": 98444
  },
  {
    "Latitude": 38.559302,
    "Longitude": -90.25174,
    "Pin Type": "familyPin",
    "id": 116,
    "Name": "My Veggie Garden",
    "Size": "medium_20x20",
    "City": "St. Louis",
    "Country": "MO",
    "Zip/Postal Code": 63111
  },
  {
    "Latitude": 43.96977,
    "Longitude": -90.80796,
    "Pin Type": "familyPin",
    "id": 117,
    "Name": "Marcys Purpose",
    "Size": "medium_20x20",
    "City": "Sparta",
    "Country": "WI",
    "Zip/Postal Code": 54656
  },
  {
    "Latitude": 40.681798,
    "Longitude": -75.22082,
    "Pin Type": "friendPin",
    "id": 118,
    "Name": "Urban Farm Initiave",
    "Size": "large_over_20x20",
    "City": "Easton",
    "Country": "PA",
    "Zip/Postal Code": 18042
  },
  {
    "Latitude": 43.216505,
    "Longitude": -123.3417381,
    "Pin Type": "familyPin",
    "id": 119,
    "Name": "The Backyard Barnyard",
    "Size": "small_10x10",
    "City": "Roseburg",
    "Country": "OR",
    "Zip/Postal Code": 97471
  },
  {
    "Latitude": 41.41362,
    "Longitude": -73.59556,
    "Pin Type": "familyPin",
    "id": 120,
    "Name": "Jennys Garden",
    "Size": "large_over_20x20",
    "City": "Brewster",
    "Country": "Ne",
    "Zip/Postal Code": 10509
  },
  {
    "Latitude": 34.063645,
    "Longitude": -117.89743,
    "Pin Type": "familyPin",
    "id": 121,
    "Name": "Carshop",
    "Size": "medium_20x20",
    "City": "West Covina",
    "Country": "Ca",
    "Zip/Postal Code": 91791
  },
  {
    "Latitude": 33.142706,
    "Longitude": -117.03049,
    "Pin Type": "familyPin",
    "id": 122,
    "Name": "Walfords Garden",
    "Size": "small_10x10",
    "City": "San Clemente",
    "Country": "CA",
    "Zip/Postal Code": 92027
  },
  {
    "Latitude": 33.639227,
    "Longitude": -117.58518,
    "Pin Type": "familyPin",
    "id": 123,
    "Name": "Suchy",
    "Size": "medium_20x20",
    "City": "Trabuco canyon",
    "Country": "CA",
    "Zip/Postal Code": 92679
  },
  {
    "Latitude": 33.8318,
    "Longitude": -117.84739,
    "Pin Type": "familyPin",
    "id": 124,
    "Name": "Fresh Family Food",
    "Size": "medium_20x20",
    "City": "Orange",
    "Country": "Ca",
    "Zip/Postal Code": 92865
  },
  {
    "Latitude": 38.347174,
    "Longitude": -122.69537,
    "Pin Type": "friendPin",
    "id": 125,
    "Name": "Growing Your Greens",
    "Size": "large_over_20x20",
    "City": "Rohnert Park",
    "Country": "CA",
    "Zip/Postal Code": 94928
  },
  {
    "Latitude": 33.732368,
    "Longitude": -118.28905,
    "Pin Type": "friendPin",
    "id": 126,
    "Name": "LR garden",
    "Size": "small_10x10",
    "City": "San Pedro Ct",
    "Country": "CA",
    "Zip/Postal Code": 90731
  },
  {
    "Latitude": 34.176238,
    "Longitude": -118.61992,
    "Pin Type": "familyPin",
    "id": 127,
    "Name": "PR Garden",
    "Size": "medium_20x20",
    "City": "Woodland Hills",
    "Country": "CA",
    "Zip/Postal Code": 91367
  },
  {
    "Latitude": 34.209407,
    "Longitude": -118.57735,
    "Pin Type": "familyPin",
    "id": 128,
    "Name": "M Garden",
    "Size": "small_10x10",
    "City": "Winnetka",
    "Country": "CA",
    "Zip/Postal Code": 91306
  },
  {
    "Latitude": 33.792687,
    "Longitude": -117.79975,
    "Pin Type": "familyPin",
    "id": 129,
    "Name": "Silver Garden",
    "Size": "small_10x10",
    "City": "Orange",
    "Country": "CA",
    "Zip/Postal Code": 92869
  },
  {
    "Latitude": 33.675893,
    "Longitude": -117.34946,
    "Pin Type": "familyPin",
    "id": 130,
    "Name": "DJs Garden",
    "Size": "medium_20x20",
    "City": "Lake Elsinore",
    "Country": "CA",
    "Zip/Postal Code": 92530
  },
  {
    "Latitude": 33.720017,
    "Longitude": -118.04614,
    "Pin Type": "familyPin",
    "id": 131,
    "Name": "Songbird Garden",
    "Size": "small_10x10",
    "City": "Huntington Beach",
    "Country": "CA",
    "Zip/Postal Code": 92649
  },
  {
    "Latitude": 34.050505,
    "Longitude": -118.53374,
    "Pin Type": "familyPin",
    "id": 132,
    "Name": "True Garden",
    "Size": "planter_box_etc",
    "City": "Pacific Palisades",
    "Country": "CA",
    "Zip/Postal Code": 90272
  },
  {
    "Latitude": 34.192102,
    "Longitude": -118.14206,
    "Pin Type": "familyPin",
    "id": 133,
    "Name": "JVB Garden",
    "Size": "small_10x10",
    "City": "Altadena",
    "Country": "CA",
    "Zip/Postal Code": 91001
  },
  {
    "Latitude": 34.265003,
    "Longitude": -118.77177,
    "Pin Type": "familyPin",
    "id": 134,
    "Name": "KD Garden",
    "Size": "planter_box_etc",
    "City": "Simi Valley",
    "Country": "CA",
    "Zip/Postal Code": 93065
  },
  {
    "Latitude": 33.640302,
    "Longitude": -117.769442,
    "Pin Type": "familyPin",
    "id": 135,
    "Name": "TR Garden",
    "Size": "small_10x10",
    "City": "Fullerton",
    "Country": "CA",
    "Zip/Postal Code": 92836
  },
  {
    "Latitude": 32.746018,
    "Longitude": -117.16715,
    "Pin Type": "familyPin",
    "id": 136,
    "Name": "Happy Garden",
    "Size": "planter_box_etc",
    "City": "Sd",
    "Country": "CA",
    "Zip/Postal Code": 92103
  },
  {
    "Latitude": 42.410037,
    "Longitude": -83.05826,
    "Pin Type": "friendPin",
    "id": 137,
    "Name": "The CH Garden",
    "Size": "small_10x10",
    "City": "Detroit",
    "Country": "Mi",
    "Zip/Postal Code": 48212
  },
  {
    "Latitude": 34.002011,
    "Longitude": -118.43083,
    "Pin Type": "familyPin",
    "id": 138,
    "Name": "KN Family Garden",
    "Size": "small_10x10",
    "City": "Los Angeles",
    "Country": "Ca",
    "Zip/Postal Code": 90066
  },
  {
    "Latitude": 34.489466,
    "Longitude": -117.35321,
    "Pin Type": "familyPin",
    "id": 139,
    "Name": "JMurphy Garden",
    "Size": "planter_box_etc",
    "City": "Victorville",
    "Country": "CA",
    "Zip/Postal Code": 92392
  },
  {
    "Latitude": 42.458502,
    "Longitude": -83.3464,
    "Pin Type": "familyPin",
    "id": 140,
    "Name": "HalleluYah Garden",
    "Size": "medium_20x20",
    "City": "Farmington Hills",
    "Country": "MI",
    "Zip/Postal Code": 48336
  },
  {
    "Latitude": 33.8318,
    "Longitude": -117.84739,
    "Pin Type": "familyPin",
    "id": 141,
    "Name": "mylittleacre",
    "Size": "small_10x10",
    "City": "Orange",
    "Country": "CA",
    "Zip/Postal Code": 92865
  },
  {
    "Latitude": 38.876897,
    "Longitude": -105.30711,
    "Pin Type": "familyPin",
    "id": 142,
    "Name": "summer gardem",
    "Size": "medium_20x20",
    "City": "F;orissant",
    "Country": "CO",
    "Zip/Postal Code": 80816
  },
  {
    "Latitude": 34.399992,
    "Longitude": -117.33999,
    "Pin Type": "familyPin",
    "id": 143,
    "Name": "Lifenfood Garden",
    "Size": "planter_box_etc",
    "City": "Hesperia",
    "Country": "CA",
    "Zip/Postal Code": 92345
  },
  {
    "Latitude": 33.844814,
    "Longitude": -117.95381,
    "Pin Type": "familyPin",
    "id": 144,
    "Name": "Our fun garden",
    "Size": "medium_20x20",
    "City": "Anaheim",
    "Country": "CA",
    "Zip/Postal Code": 92801
  },
  {
    "Latitude": 33.844814,
    "Longitude": -117.95381,
    "Pin Type": "familyPin",
    "id": 145,
    "Name": "Herb Garden",
    "Size": "medium_20x20",
    "City": "Anaheim",
    "Country": "CA",
    "Zip/Postal Code": 92801
  },
  {
    "Latitude": 34.002011,
    "Longitude": -118.43083,
    "Pin Type": "familyPin",
    "id": 146,
    "Name": "Leonards Place",
    "Size": "small_10x10",
    "City": "Anaheim",
    "Country": "CA",
    "Zip/Postal Code": 90066
  },
  {
    "Latitude": 33.868314,
    "Longitude": -118.06754,
    "Pin Type": "familyPin",
    "id": 147,
    "Name": "RoRos Garden",
    "Size": "small_10x10",
    "City": "Cerritos",
    "Country": "CA",
    "Zip/Postal Code": 90703
  },
  {
    "Latitude": 40.625621,
    "Longitude": -111.8158,
    "Pin Type": "familyPin",
    "id": 148,
    "Name": "Blue Ribbon Garden",
    "Size": "large_over_20x20",
    "City": "Salt Lake City",
    "Country": "Ut",
    "Zip/Postal Code": 84121
  },
  {
    "Latitude": 33.611272,
    "Longitude": -117.66681,
    "Pin Type": "friendPin",
    "id": 149,
    "Name": "Lins Place",
    "Size": "planter_box_etc",
    "City": "Mission Viejo",
    "Country": "CA",
    "Zip/Postal Code": 92691
  },
  {
    "Latitude": 32.742892,
    "Longitude": -117.12774,
    "Pin Type": "friendPin",
    "id": 150,
    "Name": "ButterflyGarden",
    "Size": "planter_box_etc",
    "City": "San Diego",
    "Country": "CA",
    "Zip/Postal Code": 92104
  },
  {
    "Latitude": 42.379436,
    "Longitude": -83.29105,
    "Pin Type": "familyPin",
    "id": 151,
    "Name": "Simple Man Gardens",
    "Size": "large_over_20x20",
    "City": "Redford",
    "Country": "MI",
    "Zip/Postal Code": 48239
  },
  {
    "Latitude": 34.235055,
    "Longitude": -118.51766,
    "Pin Type": "familyPin",
    "id": 152,
    "Name": "18402 Halsted St - Unit 42",
    "Size": "planter_box_etc",
    "City": "Northridge",
    "Country": "CA",
    "Zip/Postal Code": 91325
  },
  {
    "Latitude": 44.953665,
    "Longitude": -93.15922,
    "Pin Type": "familyPin",
    "id": 153,
    "Name": "Holistic Health Farms",
    "Size": "large_over_20x20",
    "City": "St. Paul",
    "Country": "Mi",
    "Zip/Postal Code": 55104
  },
  {
    "Latitude": 31.352676,
    "Longitude": -85.70509,
    "Pin Type": "familyPin",
    "id": 154,
    "Name": "Fort Rucker Community Garden",
    "Size": "medium_20x20",
    "City": "Fort Rucker",
    "Country": "Al",
    "Zip/Postal Code": 36362
  },
  {
    "Latitude": 33.611272,
    "Longitude": -117.66681,
    "Pin Type": "friendPin",
    "id": 155,
    "Name": "Marplace Garden",
    "Size": "small_10x10",
    "City": "Mission Viejo",
    "Country": "CA",
    "Zip/Postal Code": 92691
  },
  {
    "Latitude": 32.742892,
    "Longitude": -117.12774,
    "Pin Type": "friendPin",
    "id": 156,
    "Name": "greengarden",
    "Size": "medium_20x20",
    "City": "San Diego",
    "Country": "CA",
    "Zip/Postal Code": 92104
  },
  {
    "Latitude": 33.818165,
    "Longitude": -117.97304,
    "Pin Type": "friendPin",
    "id": 157,
    "Name": "No1garden",
    "Size": "medium_20x20",
    "City": "Anaheim",
    "Country": "CA",
    "Zip/Postal Code": 92804
  },
  {
    "Latitude": 38.594901,
    "Longitude": -90.2278,
    "Pin Type": "friendPin",
    "id": 158,
    "Name": "Pierreplace",
    "Size": "small_10x10",
    "City": "St Louis",
    "Country": "MO",
    "Zip/Postal Code": 63118
  },
  {
    "Latitude": 33.828766,
    "Longitude": -118.31367,
    "Pin Type": "friendPin",
    "id": 159,
    "Name": "Holnes Garden",
    "Size": "planter_box_etc",
    "City": "Torrence",
    "Country": "CA",
    "Zip/Postal Code": 90501
  },
  {
    "Latitude": 33.720017,
    "Longitude": -118.04614,
    "Pin Type": "friendPin",
    "id": 160,
    "Name": "green garden",
    "Size": "planter_box_etc",
    "City": "Huntington  Beach",
    "Country": "CA",
    "Zip/Postal Code": 92649
  },
  {
    "Latitude": 33.978965,
    "Longitude": -117.33646,
    "Pin Type": "friendPin",
    "id": 161,
    "Name": "nutra Garden",
    "Size": "medium_20x20",
    "City": "Riverside",
    "Country": "CA",
    "Zip/Postal Code": 92507
  },
  {
    "Latitude": 41.54338,
    "Longitude": -88.11963,
    "Pin Type": "friendPin",
    "id": 162,
    "Name": "Pelagia Gardens",
    "Size": "large_over_20x20",
    "City": "Joliet",
    "Country": "IL",
    "Zip/Postal Code": 60435
  },
  {
    "Latitude": 40.995384,
    "Longitude": -72.18564,
    "Pin Type": "familyPin",
    "id": 163,
    "Name": "E. Hampton Garden of Paradise",
    "Size": "small_10x10",
    "City": "East Hampton",
    "Country": "Ne",
    "Zip/Postal Code": 11937
  },
  {
    "Latitude": 33.90213,
    "Longitude": -118.00966,
    "Pin Type": "familyPin",
    "id": 164,
    "Name": "Spring Follies",
    "Size": "planter_box_etc",
    "City": "La Mirada",
    "Country": "CA",
    "Zip/Postal Code": 90638
  },
  {
    "Latitude": 49.261226,
    "Longitude": -123.1139268,
    "Pin Type": "friendPin",
    "id": 165,
    "Name": "Robs veggies",
    "Size": "small_10x10",
    "City": "Van Couver",
    "Country": "BC",
    "Zip/Postal Code": "V534P"
  },
  {
    "Latitude": 42.586677,
    "Longitude": -83.22956,
    "Pin Type": "familyPin",
    "id": 166,
    "Name": "Pansophy Roots",
    "Size": "medium_20x20",
    "City": "Bloomfield Hills",
    "Country": "Mi",
    "Zip/Postal Code": 48304
  },
  {
    "Latitude": 41.260566,
    "Longitude": -95.9362,
    "Pin Type": "friendPin",
    "id": 167,
    "Name": "Gals Garden",
    "Size": "planter_box_etc",
    "City": "Omaha",
    "Country": "NE",
    "Zip/Postal Code": 68102
  },
  {
    "Latitude": 30.246309,
    "Longitude": -97.76087,
    "Pin Type": "friendPin",
    "id": 168,
    "Name": "CMD Garden",
    "Size": "large_over_20x20",
    "City": "Austin",
    "Country": "TX",
    "Zip/Postal Code": 78704
  },
  {
    "Latitude": 30.403286,
    "Longitude": -88.77565,
    "Pin Type": "friendPin",
    "id": 169,
    "Name": "KKs Garden",
    "Size": "planter_box_etc",
    "City": "Ocean Springs",
    "Country": "MS",
    "Zip/Postal Code": 39564
  },
  {
    "Latitude": 37.9837155,
    "Longitude": 23.7293096999999,
    "Pin Type": "friendPin",
    "id": 170,
    "Name": "Spiros Garden",
    "Size": "medium_20x20",
    "City": "Athens",
    "Country": "Gr",
    "Zip/Postal Code": 0
  },
  {
    "Latitude": 38.934866,
    "Longitude": -77.06039,
    "Pin Type": "friendPin",
    "id": 171,
    "Name": "Chapman Garden",
    "Size": "small_10x10",
    "City": "Washington",
    "Country": "DC",
    "Zip/Postal Code": 20008
  },
  {
    "Latitude": 33.762117,
    "Longitude": -117.81828,
    "Pin Type": "friendPin",
    "id": 172,
    "Name": "Graces Garden",
    "Size": "large_over_20x20",
    "City": "North Tustin",
    "Country": "CA",
    "Zip/Postal Code": 92705
  },
  {
    "Latitude": 45.707153,
    "Longitude": -110.9878,
    "Pin Type": "friendPin",
    "id": 173,
    "Name": "Renees Garden",
    "Size": "small_10x10",
    "City": "Boremon",
    "Country": "MT",
    "Zip/Postal Code": 59715
  },
  {
    "Latitude": 42.056391,
    "Longitude": -87.69684,
    "Pin Type": "friendPin",
    "id": 174,
    "Name": "The Dupuis Garden",
    "Size": "small_10x10",
    "City": "Evanston",
    "Country": "IL",
    "Zip/Postal Code": 60201
  },
  {
    "Latitude": 40.748001,
    "Longitude": -74.04943,
    "Pin Type": "friendPin",
    "id": 175,
    "Name": "LG Gardem",
    "Size": "planter_box_etc",
    "City": "Jersey City",
    "Country": "NJ",
    "Zip/Postal Code": 7307
  },
  {
    "Latitude": 43.750744,
    "Longitude": -114.5198,
    "Pin Type": "friendPin",
    "id": 176,
    "Name": "Sharons Space",
    "Size": "small_10x10",
    "City": "Ketchum",
    "Country": "ID",
    "Zip/Postal Code": 83340
  },
  {
    "Latitude": 32.662563,
    "Longitude": -116.95413,
    "Pin Type": "friendPin",
    "id": 177,
    "Name": "My Green Garden",
    "Size": "small_10x10",
    "City": "C Vista",
    "Country": "CA",
    "Zip/Postal Code": 91914
  },
  {
    "Latitude": 33.803565,
    "Longitude": -117.99596,
    "Pin Type": "friendPin",
    "id": 178,
    "Name": "Science Garden",
    "Size": "large_over_20x20",
    "City": "Stanton",
    "Country": "OH",
    "Zip/Postal Code": 90680
  },
  {
    "Latitude": 33.792687,
    "Longitude": -117.79975,
    "Pin Type": "friendPin",
    "id": 179,
    "Name": "Bs Garden",
    "Size": "farm",
    "City": "Orange",
    "Country": "CA",
    "Zip/Postal Code": 92869
  },
  {
    "Latitude": 37.98779,
    "Longitude": -122.59962,
    "Pin Type": "friendPin",
    "id": 180,
    "Name": "Costa Garden",
    "Size": "medium_20x20",
    "City": "Fairfax",
    "Country": "CA",
    "Zip/Postal Code": 94930
  },
  {
    "Latitude": 37.98779,
    "Longitude": -122.59962,
    "Pin Type": "friendPin",
    "id": 181,
    "Name": "MVD Garden",
    "Size": "small_10x10",
    "City": "Palos Verdes",
    "Country": "CA",
    "Zip/Postal Code": 94930
  },
  {
    "Latitude": 33.784099,
    "Longitude": -118.38752,
    "Pin Type": "friendPin",
    "id": 182,
    "Name": "Matts Garden",
    "Size": "large_over_20x20",
    "City": "Palos Verdes",
    "Country": "CA",
    "Zip/Postal Code": 90274
  },
  {
    "Latitude": 34.456957,
    "Longitude": -119.25307,
    "Pin Type": "friendPin",
    "id": 183,
    "Name": "Rotello acre",
    "Size": "small_10x10",
    "City": "Ojau",
    "Country": "Ca",
    "Zip/Postal Code": 93023
  },
  {
    "Latitude": 33.828366,
    "Longitude": -118.18235,
    "Pin Type": "friendPin",
    "id": 184,
    "Name": "Pams Garden",
    "Size": "small_10x10",
    "City": "Long Beach",
    "Country": "CA",
    "Zip/Postal Code": 90807
  },
  {
    "Latitude": 34.143497,
    "Longitude": -114.62411,
    "Pin Type": "friendPin",
    "id": 185,
    "Name": "Rons Garden",
    "Size": "small_10x10",
    "City": "Palm Spring",
    "Country": "FL",
    "Zip/Postal Code": 92280
  },
  {
    "Latitude": 34.111208,
    "Longitude": -118.28842,
    "Pin Type": "friendPin",
    "id": 186,
    "Name": "My Little Garden",
    "Size": "small_10x10",
    "City": "Los Feliz",
    "Country": "CA",
    "Zip/Postal Code": 90027
  },
  {
    "Latitude": 41.822681,
    "Longitude": -87.84753,
    "Pin Type": "friendPin",
    "id": 187,
    "Name": "Garden on the edge",
    "Size": "medium_20x20",
    "City": "Brookfield",
    "Country": "IL",
    "Zip/Postal Code": 60513
  },
  {
    "Latitude": 33.750795,
    "Longitude": -116.72562,
    "Pin Type": "familyPin",
    "id": 188,
    "Name": "Idyllwild Community Garden",
    "Size": "large_over_20x20",
    "City": "Idyllwild",
    "Country": "Ca",
    "Zip/Postal Code": 92549
  },
  {
    "Latitude": 41.214824,
    "Longitude": -92.43864,
    "Pin Type": "friendPin",
    "id": 189,
    "Name": "TLO",
    "Size": "planter_box_etc",
    "City": "Oakaloosa",
    "Country": "IA",
    "Zip/Postal Code": 52561
  },
  {
    "Latitude": 33.828766,
    "Longitude": -118.31367,
    "Pin Type": "friendPin",
    "id": 190,
    "Name": "Thaker Garden",
    "Size": "planter_box_etc",
    "City": "Torrence",
    "Country": "CA",
    "Zip/Postal Code": 90501
  },
  {
    "Latitude": 31.261716,
    "Longitude": -92.42469,
    "Pin Type": "friendPin",
    "id": 191,
    "Name": "my little garden",
    "Size": "small_10x10",
    "City": "Alexandria",
    "Country": "LA",
    "Zip/Postal Code": 71302
  },
  {
    "Latitude": 30.326374,
    "Longitude": -97.771258,
    "Pin Type": "friendPin",
    "id": 192,
    "Name": "Mayes Place",
    "Size": "small_10x10",
    "City": "Austin",
    "Country": "TX",
    "Zip/Postal Code": 78709
  },
  {
    "Latitude": 34.03056,
    "Longitude": -118.39804,
    "Pin Type": "friendPin",
    "id": 193,
    "Name": "Ts Garden",
    "Size": "planter_box_etc",
    "City": "LA",
    "Country": "CA",
    "Zip/Postal Code": 90034
  },
  {
    "Latitude": 39.033312,
    "Longitude": -120.82172,
    "Pin Type": "friendPin",
    "id": 194,
    "Name": "MJs Garden",
    "Size": "planter_box_etc",
    "City": "Forest Hill",
    "Country": "CA",
    "Zip/Postal Code": 95631
  },
  {
    "Latitude": 33.675893,
    "Longitude": -117.34946,
    "Pin Type": "friendPin",
    "id": 195,
    "Name": "Verboom Garden",
    "Size": "medium_20x20",
    "City": "Lake Elsinore",
    "Country": "CA",
    "Zip/Postal Code": 92530
  },
  {
    "Latitude": 29.83399,
    "Longitude": -95.434241,
    "Pin Type": "friendPin",
    "id": 196,
    "Name": "Natures Garden",
    "Size": "small_10x10",
    "City": "Houston",
    "Country": "TX",
    "Zip/Postal Code": 77282
  },
  {
    "Latitude": 40.826201,
    "Longitude": -73.94879,
    "Pin Type": "familyPin",
    "id": 197,
    "Name": "ST. Lukes Community Garden",
    "Size": "medium_20x20",
    "City": "Harlem",
    "Country": "Ne",
    "Zip/Postal Code": 10031
  },
  {
    "Latitude": 37.408511,
    "Longitude": -94.70414,
    "Pin Type": "friendPin",
    "id": 198,
    "Name": "Little Garden On Campus",
    "Size": "planter_box_etc",
    "City": "Pittsburg",
    "Country": "KS",
    "Zip/Postal Code": 66762
  },
  {
    "Latitude": 39.679437,
    "Longitude": -104.96473,
    "Pin Type": "familyPin",
    "id": 199,
    "Name": "Campagnas Home Garden",
    "Size": "large_over_20x20",
    "City": "denver",
    "Country": "Co",
    "Zip/Postal Code": 80210
  },
  {
    "Latitude": -5.1333333,
    "Longitude": 119.4166667,
    "Pin Type": "familyPin",
    "id": 200,
    "Name": "Sudiang Garden",
    "Size": "farm",
    "City": "MAKASSAR",
    "Country": "SU",
    "Zip/Postal Code": 0
  },
  {
    "Latitude": 34.104555,
    "Longitude": -117.58734,
    "Pin Type": "familyPin",
    "id": 201,
    "Name": "FAMILY TABLE",
    "Size": "small_10x10",
    "City": "RANCHO CUAMONGA",
    "Country": "CA",
    "Zip/Postal Code": 91730
  },
  {
    "Latitude": 34.066009,
    "Longitude": -118.38271,
    "Pin Type": "familyPin",
    "id": 202,
    "Name": "Besherit Garden",
    "Size": "planter_box_etc",
    "City": "Beverly Hills",
    "Country": "CA",
    "Zip/Postal Code": 90211
  },
  {
    "Latitude": 38.549256,
    "Longitude": -121.73655,
    "Pin Type": "familyPin",
    "id": 203,
    "Name": "Fresh SPIN Farms",
    "Size": "farm",
    "City": "Davis",
    "Country": "Ca",
    "Zip/Postal Code": 95616
  },
  {
    "Latitude": 47.733852,
    "Longitude": -122.34461,
    "Pin Type": "familyPin",
    "id": 204,
    "Name": "Seattle Urban Farm Co",
    "Size": "large_over_20x20",
    "City": "Seattle",
    "Country": "WA",
    "Zip/Postal Code": 98133
  },
  {
    "Latitude": 47.66747,
    "Longitude": -122.37468,
    "Pin Type": "friendPin",
    "id": 205,
    "Name": "Bastille Rooftop Garden by Seattle Urban Farm Co",
    "Size": "large_over_20x20",
    "City": "Seattle",
    "Country": "WA",
    "Zip/Postal Code": 98107
  },
  {
    "Latitude": 42.104127,
    "Longitude": -87.75016,
    "Pin Type": "familyPin",
    "id": 206,
    "Name": "Canteloupeh Farm",
    "Size": "large_over_20x20",
    "City": "Winnetka",
    "Country": "Il",
    "Zip/Postal Code": 60093
  },
  {
    "Latitude": 40.707904,
    "Longitude": -74.01342,
    "Pin Type": "friendPin",
    "id": 207,
    "Name": "Murray Hill Garden",
    "Size": "planter_box_etc",
    "City": "New York",
    "Country": "NY",
    "Zip/Postal Code": 10006
  },
  {
    "Latitude": 40.780751,
    "Longitude": -73.977182,
    "Pin Type": "friendPin",
    "id": 208,
    "Name": "Murray Hill Garden",
    "Size": "planter_box_etc",
    "City": "New York",
    "Country": "NY",
    "Zip/Postal Code": 10261
  },
  {
    "Latitude": 42.365936,
    "Longitude": -83.36513,
    "Pin Type": "friendPin",
    "id": 209,
    "Name": "Lawnless Acres",
    "Size": "large_over_20x20",
    "City": "Livonia",
    "Country": "Mi",
    "Zip/Postal Code": 48150
  },
  {
    "Latitude": 38.672127,
    "Longitude": -121.15783,
    "Pin Type": "friendPin",
    "id": 210,
    "Name": "My Little Folsom Farm",
    "Size": "large_over_20x20",
    "City": "Folsom",
    "Country": "CA",
    "Zip/Postal Code": 95630
  },
  {
    "Latitude": 55.724508,
    "Longitude": 12.354765,
    "Pin Type": "familyPin",
    "id": 211,
    "Name": "Casa Loco",
    "Size": "small_10x10",
    "City": "Ballerup",
    "Country": "-",
    "Zip/Postal Code": 2750
  },
  {
    "Latitude": 38.072402,
    "Longitude": -78.50149,
    "Pin Type": "familyPin",
    "id": 212,
    "Name": "LUNCHBOX",
    "Size": "large_over_20x20",
    "City": "Charlottesville",
    "Country": "VA",
    "Zip/Postal Code": 22901
  },
  {
    "Latitude": 38.907711,
    "Longitude": -77.01732,
    "Pin Type": "familyPin",
    "id": 213,
    "Name": "Mer and Daves Garden",
    "Size": "small_10x10",
    "City": "Washington",
    "Country": "DC",
    "Zip/Postal Code": 20001
  },
  {
    "Latitude": 33.498076,
    "Longitude": -111.98603,
    "Pin Type": "familyPin",
    "id": 214,
    "Name": "The Urban Flock",
    "Size": "small_10x10",
    "City": "Phoenix",
    "Country": "AZ",
    "Zip/Postal Code": 85018
  },
  {
    "Latitude": 45.019315,
    "Longitude": -93.24304,
    "Pin Type": "familyPin",
    "id": 215,
    "Name": "Buchanan Street Farms",
    "Size": "large_over_20x20",
    "City": "Minneapolis",
    "Country": "MN",
    "Zip/Postal Code": 55418
  },
  {
    "Latitude": -37.814107,
    "Longitude": 144.96328,
    "Pin Type": "friendPin",
    "id": 216,
    "Name": "jim",
    "Size": "medium_20x20",
    "City": "Melbourne",
    "Country": "Vi",
    "Zip/Postal Code": 3031
  },
  {
    "Latitude": 35.814572,
    "Longitude": -78.58348,
    "Pin Type": "familyPin",
    "id": 217,
    "Name": "Fallen Pines Farm",
    "Size": "large_over_20x20",
    "City": "Raleigh",
    "Country": "NC",
    "Zip/Postal Code": 27604
  },
  {
    "Latitude": 42.499335,
    "Longitude": -83.22829,
    "Pin Type": "familyPin",
    "id": 218,
    "Name": "Urban Farming / Fox 2 News Garden",
    "Size": "medium_20x20",
    "City": "Southfield",
    "Country": "Mi",
    "Zip/Postal Code": 48076
  },
  {
    "Latitude": 36.12301,
    "Longitude": -80.64557,
    "Pin Type": "familyPin",
    "id": 219,
    "Name": "Pettit",
    "Size": "planter_box_etc",
    "City": "Yadkinville",
    "Country": "NC",
    "Zip/Postal Code": 27055
  },
  {
    "Latitude": 51.924216,
    "Longitude": 4.48177599999997,
    "Pin Type": "familyPin",
    "id": 220,
    "Name": "COOLzaad Kralingen",
    "Size": "large_over_20x20",
    "City": "Rotterdam",
    "Country": "Zu",
    "Zip/Postal Code": 0
  },
  {
    "Latitude": 37.7840208,
    "Longitude": -79.4428157,
    "Pin Type": "familyPin",
    "id": 221,
    "Name": "WaterWitch Grounds & Grange",
    "Size": "large_over_20x20",
    "City": "Lexington",
    "Country": "VA",
    "Zip/Postal Code": 24450
  },
  {
    "Latitude": 28.619445,
    "Longitude": -81.42695,
    "Pin Type": "friendPin",
    "id": 222,
    "Name": "Lockhart Acres Farm",
    "Size": "farm",
    "City": "Orlando",
    "Country": "Fl",
    "Zip/Postal Code": 32810
  },
  {
    "Latitude": 35.097719,
    "Longitude": -114.59734,
    "Pin Type": "familyPin",
    "id": 223,
    "Name": "Spade Organics",
    "Size": "large_over_20x20",
    "City": "Bullhead City",
    "Country": "ar",
    "Zip/Postal Code": 86442
  },
  {
    "Latitude": 42.294987,
    "Longitude": -83.25049,
    "Pin Type": "familyPin",
    "id": 224,
    "Name": "Draper garden",
    "Size": "medium_20x20",
    "City": "Dearborn",
    "Country": "Mi",
    "Zip/Postal Code": 48124
  },
  {
    "Latitude": 42.499335,
    "Longitude": -83.22829,
    "Pin Type": "friendPin",
    "id": 225,
    "Name": "Quantum",
    "Size": "planter_box_etc",
    "City": "Southfield",
    "Country": "Mi",
    "Zip/Postal Code": 48076
  },
  {
    "Latitude": 42.410487,
    "Longitude": -82.94348,
    "Pin Type": "friendPin",
    "id": 226,
    "Name": "serenity",
    "Size": "medium_20x20",
    "City": "detroit",
    "Country": "mi",
    "Zip/Postal Code": 48224
  },
  {
    "Latitude": 42.556943,
    "Longitude": -83.11506,
    "Pin Type": "friendPin",
    "id": 227,
    "Name": "Tellys place",
    "Size": "farm",
    "City": "troy",
    "Country": "mi",
    "Zip/Postal Code": 48083
  },
  {
    "Latitude": 14.6220809,
    "Longitude": 121.0438201,
    "Pin Type": "friendPin",
    "id": 228,
    "Name": "Lightlife garden",
    "Size": "planter_box_etc",
    "City": "vancouver",
    "Country": "MA",
    "Zip/Postal Code": 61660
  },
  {
    "Latitude": 42.524134,
    "Longitude": -83.25454,
    "Pin Type": "friendPin",
    "id": 229,
    "Name": "my favorie place",
    "Size": "small_10x10",
    "City": "Franklin",
    "Country": "MI",
    "Zip/Postal Code": 48025
  },
  {
    "Latitude": 42.497736,
    "Longitude": -82.89979,
    "Pin Type": "friendPin",
    "id": 230,
    "Name": "Remy Out",
    "Size": "large_over_20x20",
    "City": "St Clair Shores",
    "Country": "MI",
    "Zip/Postal Code": 48081
  },
  {
    "Latitude": 42.670932,
    "Longitude": -82.77754,
    "Pin Type": "friendPin",
    "id": 231,
    "Name": "peaceful",
    "Size": "small_10x10",
    "City": "Chesterfield",
    "Country": "MI",
    "Zip/Postal Code": 48047
  },
  {
    "Latitude": 42.499335,
    "Longitude": -83.22829,
    "Pin Type": "familyPin",
    "id": 232,
    "Name": "Paradise",
    "Size": "planter_box_etc",
    "City": "Southfield",
    "Country": "Mi",
    "Zip/Postal Code": 48076
  },
  {
    "Latitude": 29.404267,
    "Longitude": -100.88116,
    "Pin Type": "friendPin",
    "id": 233,
    "Name": "Mini Paradise",
    "Size": "small_10x10",
    "City": "Del Rio",
    "Country": "Te",
    "Zip/Postal Code": 78840
  },
  {
    "Latitude": 33.794055,
    "Longitude": -84.38525,
    "Pin Type": "friendPin",
    "id": 234,
    "Name": "Patio",
    "Size": "small_10x10",
    "City": "Atlanta",
    "Country": "GA",
    "Zip/Postal Code": 30309
  },
  {
    "Latitude": 60.816218,
    "Longitude": -115.7853653,
    "Pin Type": "friendPin",
    "id": 235,
    "Name": "Hay River Community Garden",
    "Size": "farm",
    "City": "Hay River",
    "Country": "NT",
    "Zip/Postal Code": "X0E 0"
  },
  {
    "Latitude": 41.589701,
    "Longitude": -71.454,
    "Pin Type": "friendPin",
    "id": 236,
    "Name": "Earthen Bliss",
    "Size": "small_10x10",
    "City": "North Kingstown",
    "Country": "RI",
    "Zip/Postal Code": 2852
  },
  {
    "Latitude": 42.465142,
    "Longitude": -83.39853,
    "Pin Type": "familyPin",
    "id": 237,
    "Name": "Missing Acres Farm",
    "Size": "farm",
    "City": "Farmington Hills",
    "Country": "MI",
    "Zip/Postal Code": 48335
  },
  {
    "Latitude": 42.410487,
    "Longitude": -82.94348,
    "Pin Type": "familyPin",
    "id": 238,
    "Name": "my lil piece of heaven",
    "Size": "planter_box_etc",
    "City": "Detroit",
    "Country": "MI",
    "Zip/Postal Code": 48224
  },
  {
    "Latitude": 42.379436,
    "Longitude": -83.29105,
    "Pin Type": "familyPin",
    "id": 239,
    "Name": "haygood urban gardens",
    "Size": "medium_20x20",
    "City": "redford",
    "Country": "mi",
    "Zip/Postal Code": 48239
  },
  {
    "Latitude": 40.72596,
    "Longitude": -73.99834,
    "Pin Type": "friendPin",
    "id": 240,
    "Name": "Doodle",
    "Size": "planter_box_etc",
    "City": "New York",
    "Country": "Ne",
    "Zip/Postal Code": 10012
  },
  {
    "Latitude": 19.947774,
    "Longitude": -155.78634,
    "Pin Type": "familyPin",
    "id": 241,
    "Name": "Banana Grove",
    "Size": "medium_20x20",
    "City": "Waikoloa",
    "Country": "HI",
    "Zip/Postal Code": 96738
  },
  {
    "Latitude": 36.099044,
    "Longitude": -95.96615,
    "Pin Type": "familyPin",
    "id": 242,
    "Name": "Barbour Urban Farm",
    "Size": "large_over_20x20",
    "City": "tulsa",
    "Country": "Ok",
    "Zip/Postal Code": 74105
  },
  {
    "Latitude": 40.890964,
    "Longitude": -74.01115,
    "Pin Type": "friendPin",
    "id": 243,
    "Name": "The Garden of Millions",
    "Size": "small_10x10",
    "City": "Tea Neck",
    "Country": "Ne",
    "Zip/Postal Code": 7666
  },
  {
    "Latitude": 47.564437,
    "Longitude": -122.71293,
    "Pin Type": "friendPin",
    "id": 244,
    "Name": "Malone garden",
    "Size": "medium_20x20",
    "City": "Bremerton",
    "Country": "WA",
    "Zip/Postal Code": 98312
  },
  {
    "Latitude": 42.239933,
    "Longitude": -83.150823,
    "Pin Type": "familyPin",
    "id": 245,
    "Name": "Bakers acre",
    "Size": "small_10x10",
    "City": "Pinckney",
    "Country": "MI",
    "Zip/Postal Code": 48269
  },
  {
    "Latitude": 41.809387,
    "Longitude": -88.32931,
    "Pin Type": "familyPin",
    "id": 246,
    "Name": "Dahl Haus Garden",
    "Size": "planter_box_etc",
    "City": "North Aurura",
    "Country": "IL",
    "Zip/Postal Code": 60542
  },
  {
    "Latitude": 33.503742,
    "Longitude": -112.03235,
    "Pin Type": "friendPin",
    "id": 247,
    "Name": "City Center Farms - Phoenix Biltmore",
    "Size": "large_over_20x20",
    "City": "Phoenix",
    "Country": "AZ",
    "Zip/Postal Code": 85016
  },
  {
    "Latitude": 42.460986,
    "Longitude": -83.13398,
    "Pin Type": "familyPin",
    "id": 248,
    "Name": "Real to Real Garden",
    "Size": "planter_box_etc",
    "City": "Ferndale",
    "Country": "Mi",
    "Zip/Postal Code": 48220
  },
  {
    "Latitude": 34.0900091,
    "Longitude": -118.3617443,
    "Pin Type": "friendPin",
    "id": 249,
    "Name": "ORANGE TREE",
    "Size": "planter_box_etc",
    "City": "West Hollywood",
    "Country": "CA",
    "Zip/Postal Code": 90269
  },
  {
    "Latitude": 34.090975,
    "Longitude": -118.3813,
    "Pin Type": "friendPin",
    "id": 250,
    "Name": "The Orange Tree",
    "Size": "planter_box_etc",
    "City": "West Hollywood",
    "Country": "CA",
    "Zip/Postal Code": 90069
  },
  {
    "Latitude": 33.38779,
    "Longitude": -84.82536,
    "Pin Type": "familyPin",
    "id": 251,
    "Name": "Papas garden",
    "Size": "medium_20x20",
    "City": "Newnan",
    "Country": "GA",
    "Zip/Postal Code": 30263
  },
  {
    "Latitude": 42.425836,
    "Longitude": -82.90003,
    "Pin Type": "familyPin",
    "id": 252,
    "Name": "Candydees Garden",
    "Size": "small_10x10",
    "City": "Grosse Point",
    "Country": "Mi",
    "Zip/Postal Code": 48236
  },
  {
    "Latitude": 44.911564,
    "Longitude": -93.31947,
    "Pin Type": "familyPin",
    "id": 253,
    "Name": "Marys Garden",
    "Size": "small_10x10",
    "City": "Minneapolis - MN",
    "Country": "MN",
    "Zip/Postal Code": 55410
  },
  {
    "Latitude": 33.923463,
    "Longitude": -117.89559,
    "Pin Type": "familyPin",
    "id": 254,
    "Name": "Gavins Garden",
    "Size": "medium_20x20",
    "City": "Brea",
    "Country": "CA",
    "Zip/Postal Code": 92821
  },
  {
    "Latitude": 52.2296756,
    "Longitude": 21.0122287,
    "Pin Type": "familyPin",
    "id": 255,
    "Name": "Kasias Tomato Farm",
    "Size": "planter_box_etc",
    "City": "Warsaw",
    "Country": "Ma",
    "Zip/Postal Code": 0
  },
  {
    "Latitude": 39.958564,
    "Longitude": -82.92824,
    "Pin Type": "familyPin",
    "id": 256,
    "Name": "harachis and son garden",
    "Size": "medium_20x20",
    "City": "bexley",
    "Country": "oh",
    "Zip/Postal Code": 43209
  },
  {
    "Latitude": 52.2296756,
    "Longitude": 21.0122287,
    "Pin Type": "familyPin",
    "id": 257,
    "Name": "Mini Farm",
    "Size": "planter_box_etc",
    "City": "Warsaw",
    "Country": "ma",
    "Zip/Postal Code": 0
  },
  {
    "Latitude": 41.881632,
    "Longitude": -71.35583,
    "Pin Type": "familyPin",
    "id": 258,
    "Name": "point13acres",
    "Size": "large_over_20x20",
    "City": "Pawtucket",
    "Country": "RI",
    "Zip/Postal Code": 2861
  },
  {
    "Latitude": 34.050505,
    "Longitude": -118.53374,
    "Pin Type": "familyPin",
    "id": 259,
    "Name": "Gracie The Garden",
    "Size": "planter_box_etc",
    "City": "Pacific Palisades",
    "Country": "CA",
    "Zip/Postal Code": 90272
  },
  {
    "Latitude": 34.063209,
    "Longitude": -118.43643,
    "Pin Type": "friendPin",
    "id": 260,
    "Name": "Betsys Place",
    "Size": "planter_box_etc",
    "City": "Los Angeles",
    "Country": "CA",
    "Zip/Postal Code": 90024
  },
  {
    "Latitude": 34.067409,
    "Longitude": -118.47528,
    "Pin Type": "familyPin",
    "id": 261,
    "Name": "Megs Garden",
    "Size": "medium_20x20",
    "City": "Los Angeles",
    "Country": "CA",
    "Zip/Postal Code": 90049
  },
  {
    "Latitude": 34.050505,
    "Longitude": -118.53374,
    "Pin Type": "familyPin",
    "id": 262,
    "Name": "Sues Garden",
    "Size": "small_10x10",
    "City": "Pacific Palisades",
    "Country": "CA",
    "Zip/Postal Code": 90272
  },
  {
    "Latitude": 34.101007,
    "Longitude": -118.45077,
    "Pin Type": "familyPin",
    "id": 263,
    "Name": "Ranjits Garden",
    "Size": "medium_20x20",
    "City": "Los Angeles",
    "Country": "CA",
    "Zip/Postal Code": 90077
  },
  {
    "Latitude": 34.050505,
    "Longitude": -118.53374,
    "Pin Type": "familyPin",
    "id": 264,
    "Name": "Paradise",
    "Size": "small_10x10",
    "City": "Pacific Palisades",
    "Country": "CA",
    "Zip/Postal Code": 90272
  },
  {
    "Latitude": 34.050505,
    "Longitude": -118.53374,
    "Pin Type": "familyPin",
    "id": 265,
    "Name": "Villa Monaco",
    "Size": "large_over_20x20",
    "City": "Pacific Palisades",
    "Country": "CA",
    "Zip/Postal Code": 90272
  },
  {
    "Latitude": 39.761211,
    "Longitude": -86.52344,
    "Pin Type": "familyPin",
    "id": 266,
    "Name": "Hornick greens",
    "Size": "small_10x10",
    "City": "Danville",
    "Country": "IN",
    "Zip/Postal Code": 46122
  },
  {
    "Latitude": 33.801767,
    "Longitude": -118.1858,
    "Pin Type": "familyPin",
    "id": 267,
    "Name": "more plants than I have stairs",
    "Size": "planter_box_etc",
    "City": "long beach",
    "Country": 90,
    "Zip/Postal Code": 90806
  },
  {
    "Latitude": 34.307877,
    "Longitude": -118.42904,
    "Pin Type": "familyPin",
    "id": 268,
    "Name": "Welcome to my garden",
    "Size": "small_10x10",
    "City": "Sylmar",
    "Country": "CA",
    "Zip/Postal Code": 91342
  },
  {
    "Latitude": 42.458502,
    "Longitude": -83.3464,
    "Pin Type": "familyPin",
    "id": 269,
    "Name": "Mark King Garden",
    "Size": "small_10x10",
    "City": "Farmington Hills",
    "Country": "Mi",
    "Zip/Postal Code": 48336
  },
  {
    "Latitude": 34.12716,
    "Longitude": -117.20073,
    "Pin Type": "friendPin",
    "id": 270,
    "Name": "Blessings Garden",
    "Size": "large_over_20x20",
    "City": "Highland",
    "Country": "Ca",
    "Zip/Postal Code": 92346
  },
  {
    "Latitude": 39.843304,
    "Longitude": -105.11896,
    "Pin Type": "familyPin",
    "id": 271,
    "Name": "Rose Roots",
    "Size": "farm",
    "City": "Arvada",
    "Country": "Co",
    "Zip/Postal Code": 80005
  },
  {
    "Latitude": 41.545089,
    "Longitude": -93.61904,
    "Pin Type": "familyPin",
    "id": 272,
    "Name": "Sarahs Garden",
    "Size": "small_10x10",
    "City": "Des Moines",
    "Country": "Io",
    "Zip/Postal Code": 50315
  },
  {
    "Latitude": 41.87355,
    "Longitude": -87.7885,
    "Pin Type": "familyPin",
    "id": 273,
    "Name": "Vertical Farm Garage Program",
    "Size": "small_10x10",
    "City": "Oak Park",
    "Country": "IL",
    "Zip/Postal Code": 60304
  },
  {
    "Latitude": 32.213291,
    "Longitude": -110.82559,
    "Pin Type": "familyPin",
    "id": 274,
    "Name": "Browns Bells",
    "Size": "planter_box_etc",
    "City": "Tucson",
    "Country": "Ar",
    "Zip/Postal Code": 85710
  },
  {
    "Latitude": 33.427078,
    "Longitude": -117.61401,
    "Pin Type": "familyPin",
    "id": 275,
    "Name": "Growzays Aquaponics",
    "Size": "small_10x10",
    "City": "San Clemente",
    "Country": "CA",
    "Zip/Postal Code": 92672
  },
  {
    "Latitude": 42.132707,
    "Longitude": -80.08452,
    "Pin Type": "friendPin",
    "id": 276,
    "Name": "Commodore Patch",
    "Size": "medium_20x20",
    "City": "Erie",
    "Country": "Pe",
    "Zip/Postal Code": 16507
  },
  {
    "Latitude": 42.421936,
    "Longitude": -83.09981,
    "Pin Type": "familyPin",
    "id": 277,
    "Name": "J B urban community garden",
    "Size": "large_over_20x20",
    "City": "Highland Park",
    "Country": "MI",
    "Zip/Postal Code": 48203
  },
  {
    "Latitude": 42.465886,
    "Longitude": -83.056,
    "Pin Type": "familyPin",
    "id": 278,
    "Name": "Sharing Earths Bounty",
    "Size": "medium_20x20",
    "City": "Warren",
    "Country": "MI",
    "Zip/Postal Code": 48091
  },
  {
    "Latitude": 33.853853,
    "Longitude": -84.22036,
    "Pin Type": "friendPin",
    "id": 279,
    "Name": "Amys Back Forty",
    "Size": "medium_20x20",
    "City": "Atlanta",
    "Country": "GA",
    "Zip/Postal Code": 30084
  },
  {
    "Latitude": 33.786594,
    "Longitude": -118.298662,
    "Pin Type": "familyPin",
    "id": 280,
    "Name": "Harvest Garden",
    "Size": "small_10x10",
    "City": "Lakewood",
    "Country": "CA",
    "Zip/Postal Code": 90711
  },
  {
    "Latitude": 44.999165,
    "Longitude": -93.29823,
    "Pin Type": "familyPin",
    "id": 281,
    "Name": "Karamu Gardens",
    "Size": "large_over_20x20",
    "City": "Minneapolis",
    "Country": "MN",
    "Zip/Postal Code": 55411
  },
  {
    "Latitude": 43.653226,
    "Longitude": -79.3831843,
    "Pin Type": "familyPin",
    "id": 282,
    "Name": "elm grove",
    "Size": "medium_20x20",
    "City": "Toronto",
    "Country": "On",
    "Zip/Postal Code": "M6K 2"
  },
  {
    "Latitude": 38.152068,
    "Longitude": -122.25074,
    "Pin Type": "familyPin",
    "id": 283,
    "Name": "Loma Vista Farm",
    "Size": "farm",
    "City": "Vallejo",
    "Country": "CA",
    "Zip/Postal Code": 94589
  },
  {
    "Latitude": 42.365337,
    "Longitude": -83.14254,
    "Pin Type": "familyPin",
    "id": 284,
    "Name": "julian st communiti garden",
    "Size": "large_over_20x20",
    "City": "detroit",
    "Country": "mi",
    "Zip/Postal Code": 48204
  },
  {
    "Latitude": 42.482585,
    "Longitude": -83.16812,
    "Pin Type": "friendPin",
    "id": 285,
    "Name": "??????",
    "Size": "small_10x10",
    "City": "huntington Woods",
    "Country": "mi",
    "Zip/Postal Code": 48070
  },
  {
    "Latitude": 42.927801,
    "Longitude": -85.54582,
    "Pin Type": "familyPin",
    "id": 286,
    "Name": "Water Wheel Farms",
    "Size": "large_over_20x20",
    "City": "Grand Rapids",
    "Country": "MI",
    "Zip/Postal Code": 49546
  },
  {
    "Latitude": 36.051155,
    "Longitude": -78.857651,
    "Pin Type": "friendPin",
    "id": 287,
    "Name": "Songbird",
    "Size": "planter_box_etc",
    "City": "Durham",
    "Country": "NC",
    "Zip/Postal Code": 27710
  },
  {
    "Latitude": 34.107559,
    "Longitude": -118.22663,
    "Pin Type": "friendPin",
    "id": 288,
    "Name": "domestickat",
    "Size": "planter_box_etc",
    "City": "Los Angeles",
    "Country": "Ca",
    "Zip/Postal Code": 90065
  },
  {
    "Latitude": 34.200104,
    "Longitude": -118.54099,
    "Pin Type": "friendPin",
    "id": 289,
    "Name": "Victory.",
    "Size": "medium_20x20",
    "City": "Reseda",
    "Country": "Ca",
    "Zip/Postal Code": 91335
  },
  {
    "Latitude": 52.519171,
    "Longitude": 13.4060912,
    "Pin Type": "familyPin",
    "id": 290,
    "Name": "Hofgarten",
    "Size": "large_over_20x20",
    "City": "Berlin",
    "Country": "Be",
    "Zip/Postal Code": 10247
  },
  {
    "Latitude": 35.377069,
    "Longitude": -77.92463,
    "Pin Type": "familyPin",
    "id": 291,
    "Name": "Smith Family Produce",
    "Size": "large_over_20x20",
    "City": "Goldsboro",
    "Country": "NC",
    "Zip/Postal Code": 27534
  },
  {
    "Latitude": 38.598185,
    "Longitude": -76.90381,
    "Pin Type": "friendPin",
    "id": 292,
    "Name": "Whimsy",
    "Size": "large_over_20x20",
    "City": "Waldorf",
    "Country": "Ma",
    "Zip/Postal Code": 20602
  },
  {
    "Latitude": 38.058477,
    "Longitude": -84.46109,
    "Pin Type": "familyPin",
    "id": 293,
    "Name": "Urban Paradise",
    "Size": "large_over_20x20",
    "City": "Lexington",
    "Country": "Ke",
    "Zip/Postal Code": 40505
  },
  {
    "Latitude": 26.094665,
    "Longitude": -80.17987,
    "Pin Type": "familyPin",
    "id": 294,
    "Name": "JUDYS ORGANIC GROOVE",
    "Size": "small_10x10",
    "City": "FT LAUDERDALE",
    "Country": "FL",
    "Zip/Postal Code": 33312
  },
  {
    "Latitude": 42.375787,
    "Longitude": -83.10849,
    "Pin Type": "friendPin",
    "id": 295,
    "Name": "Carter",
    "Size": "planter_box_etc",
    "City": "Detroit",
    "Country": "Mi",
    "Zip/Postal Code": 48206
  },
  {
    "Latitude": 42.459022,
    "Longitude": -83.09819,
    "Pin Type": "friendPin",
    "id": 296,
    "Name": "Akashas Alchemy",
    "Size": "small_10x10",
    "City": "Hazel Park",
    "Country": "MI",
    "Zip/Postal Code": 48030
  },
  {
    "Latitude": 42.595233,
    "Longitude": -83.39974,
    "Pin Type": "familyPin",
    "id": 297,
    "Name": "Old Orchard Trail",
    "Size": "planter_box_etc",
    "City": "Orchard Lake",
    "Country": "MI",
    "Zip/Postal Code": 48324
  },
  {
    "Latitude": 33.816217,
    "Longitude": -118.21495,
    "Pin Type": "familyPin",
    "id": 298,
    "Name": "Lil Anthonys Garden",
    "Size": "large_over_20x20",
    "City": "Long Beach",
    "Country": "Ca",
    "Zip/Postal Code": 90810
  },
  {
    "Latitude": 34.009276,
    "Longitude": -118.47286,
    "Pin Type": "familyPin",
    "id": 299,
    "Name": "Sandys Feast",
    "Size": "planter_box_etc",
    "City": "Santa Monica",
    "Country": "CA",
    "Zip/Postal Code": 90405
  },
  {
    "Latitude": 34.009276,
    "Longitude": -118.47286,
    "Pin Type": "friendPin",
    "id": 300,
    "Name": "Todds Bounty",
    "Size": "planter_box_etc",
    "City": "santa monica",
    "Country": "CA",
    "Zip/Postal Code": 90405
  },
  {
    "Latitude": 42.410687,
    "Longitude": -88.05462,
    "Pin Type": "familyPin",
    "id": 301,
    "Name": "The Rock Father Garden",
    "Size": "medium_20x20",
    "City": "Lake Villa",
    "Country": "IL",
    "Zip/Postal Code": 60046
  },
  {
    "Latitude": 40.670874,
    "Longitude": -73.89424,
    "Pin Type": "friendPin",
    "id": 302,
    "Name": "Temple of David Community Garden",
    "Size": "medium_20x20",
    "City": "Brooklyn",
    "Country": "NY",
    "Zip/Postal Code": 11207
  },
  {
    "Latitude": 41.54338,
    "Longitude": -88.11963,
    "Pin Type": "familyPin",
    "id": 303,
    "Name": "Kats",
    "Size": "small_10x10",
    "City": "Joliet",
    "Country": "Il",
    "Zip/Postal Code": 60435
  },
  {
    "Latitude": 34.122058,
    "Longitude": -118.3379,
    "Pin Type": "familyPin",
    "id": 304,
    "Name": "Jaq and Rods Garden",
    "Size": "planter_box_etc",
    "City": "Los Angeles",
    "Country": "Ca",
    "Zip/Postal Code": 90068
  },
  {
    "Latitude": 42.499335,
    "Longitude": -83.22829,
    "Pin Type": "familyPin",
    "id": 305,
    "Name": "Gennesis",
    "Size": "small_10x10",
    "City": "River Rouge",
    "Country": "MI",
    "Zip/Postal Code": 48076
  },
  {
    "Latitude": 34.235055,
    "Longitude": -118.51766,
    "Pin Type": "familyPin",
    "id": 306,
    "Name": "Gaia Girls",
    "Size": "large_over_20x20",
    "City": "Northridge",
    "Country": "CA",
    "Zip/Postal Code": 91325
  },
  {
    "Latitude": 34.165706,
    "Longitude": -118.39986,
    "Pin Type": "friendPin",
    "id": 307,
    "Name": "Debras Delight",
    "Size": "small_10x10",
    "City": "Valley Village",
    "Country": "CA",
    "Zip/Postal Code": 91607
  },
  {
    "Latitude": 40.436618,
    "Longitude": -80.07289,
    "Pin Type": "familyPin",
    "id": 308,
    "Name": "Gwens Garden",
    "Size": "medium_20x20",
    "City": "Pittsburgh",
    "Country": "Pa",
    "Zip/Postal Code": 15205
  },
  {
    "Latitude": 40.034111,
    "Longitude": -75.17203,
    "Pin Type": "friendPin",
    "id": 309,
    "Name": "GrowingForGood:Philadelphia",
    "Size": "large_over_20x20",
    "City": "Philadelphia",
    "Country": "PA",
    "Zip/Postal Code": 19144
  },
  {
    "Latitude": 27.978316,
    "Longitude": -82.00841,
    "Pin Type": "friendPin",
    "id": 310,
    "Name": "kats korner",
    "Size": "large_over_20x20",
    "City": "lakeland",
    "Country": "fl",
    "Zip/Postal Code": 33811
  },
  {
    "Latitude": 42.541268,
    "Longitude": -83.37551,
    "Pin Type": "familyPin",
    "id": 311,
    "Name": "Darling Doll House",
    "Size": "planter_box_etc",
    "City": "West Bloomfield",
    "Country": "Mi",
    "Zip/Postal Code": 48322
  },
  {
    "Latitude": 43.071201,
    "Longitude": -85.480856,
    "Pin Type": "familyPin",
    "id": 312,
    "Name": "Katies place",
    "Size": "small_10x10",
    "City": "Shelby Twnship",
    "Country": "MI",
    "Zip/Postal Code": 49317
  },
  {
    "Latitude": 42.425236,
    "Longitude": -83.24902,
    "Pin Type": "familyPin",
    "id": 313,
    "Name": "Connies Creations",
    "Size": "planter_box_etc",
    "City": "Detroit",
    "Country": "MI",
    "Zip/Postal Code": 48219
  },
  {
    "Latitude": 42.511293,
    "Longitude": -83.0597,
    "Pin Type": "familyPin",
    "id": 314,
    "Name": "Warrens Best",
    "Size": "small_10x10",
    "City": "Warren",
    "Country": "MI",
    "Zip/Postal Code": 48092
  },
  {
    "Latitude": 42.501385,
    "Longitude": -83.10474,
    "Pin Type": "familyPin",
    "id": 315,
    "Name": "a little help",
    "Size": "planter_box_etc",
    "City": "Madison  Heights",
    "Country": "MI",
    "Zip/Postal Code": 48071
  },
  {
    "Latitude": 42.421936,
    "Longitude": -83.09981,
    "Pin Type": "familyPin",
    "id": 316,
    "Name": "cumbarland garden",
    "Size": "small_10x10",
    "City": "Detroit",
    "Country": "MI",
    "Zip/Postal Code": 48203
  },
  {
    "Latitude": 42.421936,
    "Longitude": -83.09981,
    "Pin Type": "familyPin",
    "id": 317,
    "Name": "Jsglgt",
    "Size": "large_over_20x20",
    "City": "Detroit",
    "Country": "MI",
    "Zip/Postal Code": 48203
  },
  {
    "Latitude": 42.394586,
    "Longitude": -83.24422,
    "Pin Type": "friendPin",
    "id": 318,
    "Name": "Glo",
    "Size": "medium_20x20",
    "City": "Detroit",
    "Country": "MI",
    "Zip/Postal Code": 48223
  },
  {
    "Latitude": 42.459022,
    "Longitude": -83.09819,
    "Pin Type": "familyPin",
    "id": 319,
    "Name": 3,
    "Size": "small_10x10",
    "City": "Hazel Park",
    "Country": "MI",
    "Zip/Postal Code": 48030
  },
  {
    "Latitude": 42.410037,
    "Longitude": -83.05826,
    "Pin Type": "familyPin",
    "id": 320,
    "Name": "Edible",
    "Size": "large_over_20x20",
    "City": "detroit",
    "Country": "mi",
    "Zip/Postal Code": 48212
  },
  {
    "Latitude": 42.394586,
    "Longitude": -83.24422,
    "Pin Type": "familyPin",
    "id": 321,
    "Name": "The Joy Garden",
    "Size": "small_10x10",
    "City": "Detroit",
    "Country": "MI",
    "Zip/Postal Code": 48223
  },
  {
    "Latitude": 29.915355,
    "Longitude": -90.05335,
    "Pin Type": "friendPin",
    "id": 322,
    "Name": "The Gainey Garden",
    "Size": "small_10x10",
    "City": "Gretna",
    "Country": "LA",
    "Zip/Postal Code": 70053
  },
  {
    "Latitude": 34.254751,
    "Longitude": -118.42406,
    "Pin Type": "familyPin",
    "id": 323,
    "Name": "Paradise",
    "Size": "small_10x10",
    "City": "Pomoma",
    "Country": "CA",
    "Zip/Postal Code": 91331
  },
  {
    "Latitude": 34.07851,
    "Longitude": -118.26596,
    "Pin Type": "familyPin",
    "id": 324,
    "Name": "Pisa",
    "Size": "medium_20x20",
    "City": "Los Angeles",
    "Country": "CA",
    "Zip/Postal Code": 90026
  },
  {
    "Latitude": 34.12716,
    "Longitude": -117.20073,
    "Pin Type": "familyPin",
    "id": 325,
    "Name": "Edmunds Wonderland",
    "Size": "medium_20x20",
    "City": "San Bernadino",
    "Country": "CA",
    "Zip/Postal Code": 92346
  },
  {
    "Latitude": 34.07851,
    "Longitude": -118.26596,
    "Pin Type": "familyPin",
    "id": 326,
    "Name": "Luna",
    "Size": "medium_20x20",
    "City": "Los Angeles",
    "Country": "CA",
    "Zip/Postal Code": 90026
  },
  {
    "Latitude": 34.048411,
    "Longitude": -118.34015,
    "Pin Type": "familyPin",
    "id": 327,
    "Name": "Violets Garden",
    "Size": "large_over_20x20",
    "City": "Los Angeles",
    "Country": "CA",
    "Zip/Postal Code": 90019
  },
  {
    "Latitude": 34.058911,
    "Longitude": -118.30848,
    "Pin Type": "friendPin",
    "id": 328,
    "Name": "Olic",
    "Size": "planter_box_etc",
    "City": "Los Angeles",
    "Country": "CA",
    "Zip/Postal Code": 90005
  },
  {
    "Latitude": 34.003213,
    "Longitude": -118.3078,
    "Pin Type": "familyPin",
    "id": 329,
    "Name": "M Garden",
    "Size": "small_10x10",
    "City": "Los Angeles",
    "Country": "CA",
    "Zip/Postal Code": 90062
  },
  {
    "Latitude": 34.07851,
    "Longitude": -118.26596,
    "Pin Type": "familyPin",
    "id": 330,
    "Name": "Gypsy Garden",
    "Size": "planter_box_etc",
    "City": "Los Angeles",
    "Country": "CA",
    "Zip/Postal Code": 90026
  },
  {
    "Latitude": 34.07851,
    "Longitude": -118.26596,
    "Pin Type": "familyPin",
    "id": 331,
    "Name": "Oxygen Alley",
    "Size": "medium_20x20",
    "City": "Los Angeles",
    "Country": "CA",
    "Zip/Postal Code": 90026
  },
  {
    "Latitude": 34.098908,
    "Longitude": -118.36241,
    "Pin Type": "familyPin",
    "id": 332,
    "Name": "Anita",
    "Size": "large_over_20x20",
    "City": "Los Angeles",
    "Country": "CA",
    "Zip/Postal Code": 90046
  },
  {
    "Latitude": 34.058911,
    "Longitude": -118.30848,
    "Pin Type": "familyPin",
    "id": 333,
    "Name": "The Happy Tomato",
    "Size": "small_10x10",
    "City": "Los Angeles",
    "Country": "CA",
    "Zip/Postal Code": 90005
  },
  {
    "Latitude": 34.168206,
    "Longitude": -118.37246,
    "Pin Type": "familyPin",
    "id": 334,
    "Name": "Bennette",
    "Size": "small_10x10",
    "City": "Studio City",
    "Country": "CA",
    "Zip/Postal Code": 91601
  },
  {
    "Latitude": 34.111208,
    "Longitude": -118.28842,
    "Pin Type": "familyPin",
    "id": 335,
    "Name": "Green Box",
    "Size": "medium_20x20",
    "City": "Los Angeles",
    "Country": "CA",
    "Zip/Postal Code": 90027
  },
  {
    "Latitude": 38.702651,
    "Longitude": -90.36109,
    "Pin Type": "familyPin",
    "id": 336,
    "Name": "Reppert Family Garden",
    "Size": "medium_20x20",
    "City": "St. Louis",
    "Country": "MO",
    "Zip/Postal Code": 63114
  },
  {
    "Latitude": 42.379019,
    "Longitude": -83.04483,
    "Pin Type": "friendPin",
    "id": 337,
    "Name": "brown&green",
    "Size": "small_10x10",
    "City": "detroit",
    "Country": "mi",
    "Zip/Postal Code": 48211
  },
  {
    "Latitude": 34.073759,
    "Longitude": -118.37376,
    "Pin Type": "familyPin",
    "id": 338,
    "Name": "My Garden",
    "Size": "small_10x10",
    "City": "Los Angeles",
    "Country": "CA",
    "Zip/Postal Code": 90048
  },
  {
    "Latitude": 34.090259,
    "Longitude": -118.29455,
    "Pin Type": "familyPin",
    "id": 339,
    "Name": "Eden",
    "Size": "small_10x10",
    "City": "Los Angeles",
    "Country": "CA",
    "Zip/Postal Code": 90029
  },
  {
    "Latitude": 34.098859,
    "Longitude": -118.32745,
    "Pin Type": "familyPin",
    "id": 340,
    "Name": "Judy Garden Garland",
    "Size": "small_10x10",
    "City": "Los Angeles",
    "Country": "CA",
    "Zip/Postal Code": 90028
  },
  {
    "Latitude": 34.089459,
    "Longitude": -118.3285,
    "Pin Type": "friendPin",
    "id": 341,
    "Name": "LB Garden",
    "Size": "medium_20x20",
    "City": "Los Angeles",
    "Country": "CA",
    "Zip/Postal Code": 90038
  },
  {
    "Latitude": 34.072959,
    "Longitude": -118.1462,
    "Pin Type": "familyPin",
    "id": 342,
    "Name": "Girls Giving Urban",
    "Size": "small_10x10",
    "City": "Los Angeles",
    "Country": "CA",
    "Zip/Postal Code": 91803
  },
  {
    "Latitude": 34.187044,
    "Longitude": -118.3812562,
    "Pin Type": "friendPin",
    "id": 343,
    "Name": "Edwards Garden",
    "Size": "medium_20x20",
    "City": "North Hollywood",
    "Country": "CA",
    "Zip/Postal Code": 91601
  },
  {
    "Latitude": 34.089459,
    "Longitude": -118.3285,
    "Pin Type": "familyPin",
    "id": 344,
    "Name": "Chloes Garden Cash",
    "Size": "small_10x10",
    "City": "Los Angeles",
    "Country": "CA",
    "Zip/Postal Code": 90038
  },
  {
    "Latitude": 34.176505,
    "Longitude": -118.43308,
    "Pin Type": "familyPin",
    "id": 345,
    "Name": "Toni and Franks Garden",
    "Size": "small_10x10",
    "City": "Sherman Oaks",
    "Country": "ca",
    "Zip/Postal Code": 91401
  },
  {
    "Latitude": 42.365337,
    "Longitude": -83.14254,
    "Pin Type": "familyPin",
    "id": 346,
    "Name": "Care N Share Community Garden",
    "Size": "farm",
    "City": "Detroit",
    "Country": "MI",
    "Zip/Postal Code": 48204
  },
  {
    "Latitude": 34.090259,
    "Longitude": -118.29455,
    "Pin Type": "familyPin",
    "id": 347,
    "Name": "Joti Garden",
    "Size": "large_over_20x20",
    "City": "Los Angeles",
    "Country": "CA",
    "Zip/Postal Code": 90029
  },
  {
    "Latitude": 34.254751,
    "Longitude": -118.42406,
    "Pin Type": "familyPin",
    "id": 348,
    "Name": "Natalies Garden",
    "Size": "small_10x10",
    "City": "Pacoima",
    "Country": "CA",
    "Zip/Postal Code": 91331
  },
  {
    "Latitude": 33.997179,
    "Longitude": -118.40145,
    "Pin Type": "familyPin",
    "id": 349,
    "Name": "Mama Sud",
    "Size": "small_10x10",
    "City": "Culver City",
    "Country": "CA",
    "Zip/Postal Code": 90230
  },
  {
    "Latitude": 34.101007,
    "Longitude": -118.45077,
    "Pin Type": "familyPin",
    "id": 350,
    "Name": "Gardenville",
    "Size": "medium_20x20",
    "City": "Los Angeles",
    "Country": "CA",
    "Zip/Postal Code": 90077
  },
  {
    "Latitude": 34.101007,
    "Longitude": -118.45077,
    "Pin Type": "familyPin",
    "id": 351,
    "Name": "Bently Farm",
    "Size": "medium_20x20",
    "City": "Los Angeles",
    "Country": "CA",
    "Zip/Postal Code": 90077
  },
  {
    "Latitude": 33.955913,
    "Longitude": -118.35868,
    "Pin Type": "familyPin",
    "id": 352,
    "Name": "Marcitos",
    "Size": "small_10x10",
    "City": "Inglewood",
    "Country": "CA",
    "Zip/Postal Code": 90301
  },
  {
    "Latitude": 34.07851,
    "Longitude": -118.26596,
    "Pin Type": "familyPin",
    "id": 353,
    "Name": "Sampaquita",
    "Size": "medium_20x20",
    "City": "Los Angeles",
    "Country": "CA",
    "Zip/Postal Code": 90026
  },
  {
    "Latitude": 34.166567,
    "Longitude": -118.26994,
    "Pin Type": "familyPin",
    "id": 354,
    "Name": "Sues Garden",
    "Size": "small_10x10",
    "City": "Glendale",
    "Country": "CA",
    "Zip/Postal Code": 91202
  },
  {
    "Latitude": 34.110425,
    "Longitude": -118.25832,
    "Pin Type": "familyPin",
    "id": 355,
    "Name": "Sams",
    "Size": "medium_20x20",
    "City": "Los Angeles",
    "Country": "CA",
    "Zip/Postal Code": 90039
  },
  {
    "Latitude": 34.12716,
    "Longitude": -117.20073,
    "Pin Type": "familyPin",
    "id": 356,
    "Name": "Lucys Land",
    "Size": "small_10x10",
    "City": "Highland",
    "Country": "CA",
    "Zip/Postal Code": 92346
  },
  {
    "Latitude": 34.07851,
    "Longitude": -118.26596,
    "Pin Type": "familyPin",
    "id": 357,
    "Name": "Veronicas Garden",
    "Size": "small_10x10",
    "City": "Los Angeles",
    "Country": "CA",
    "Zip/Postal Code": 90026
  },
  {
    "Latitude": 32.664307,
    "Longitude": -116.46513,
    "Pin Type": "familyPin",
    "id": 358,
    "Name": "Chopurian",
    "Size": "small_10x10",
    "City": "Glendale",
    "Country": "CA",
    "Zip/Postal Code": 91906
  },
  {
    "Latitude": 34.1161196,
    "Longitude": -118.1503488,
    "Pin Type": "friendPin",
    "id": 359,
    "Name": "Samaohi",
    "Size": "planter_box_etc",
    "City": "South Pasadena",
    "Country": "CA",
    "Zip/Postal Code": 91130
  },
  {
    "Latitude": 34.07036,
    "Longitude": -118.34926,
    "Pin Type": "familyPin",
    "id": 360,
    "Name": "Ediths Garden",
    "Size": "medium_20x20",
    "City": "Los Angeles",
    "Country": "CA",
    "Zip/Postal Code": 90036
  },
  {
    "Latitude": 34.07851,
    "Longitude": -118.26596,
    "Pin Type": "familyPin",
    "id": 361,
    "Name": "Liam Stones",
    "Size": "medium_20x20",
    "City": "Los Angeles",
    "Country": "CA",
    "Zip/Postal Code": 90026
  },
  {
    "Latitude": 34.07851,
    "Longitude": -118.26596,
    "Pin Type": "familyPin",
    "id": 362,
    "Name": "Erics Garden Oasis",
    "Size": "medium_20x20",
    "City": "Los Angeles",
    "Country": "CA",
    "Zip/Postal Code": 90026
  },
  {
    "Latitude": 34.098908,
    "Longitude": -118.36241,
    "Pin Type": "familyPin",
    "id": 363,
    "Name": "Beautiful Restful",
    "Size": "medium_20x20",
    "City": "Los Angeles",
    "Country": "CA",
    "Zip/Postal Code": 90046
  },
  {
    "Latitude": 32.897459,
    "Longitude": -96.5497,
    "Pin Type": "friendPin",
    "id": 364,
    "Name": "Brittany Acres",
    "Size": "small_10x10",
    "City": "rowlett",
    "Country": "tx",
    "Zip/Postal Code": 75088
  },
  {
    "Latitude": 42.4858692,
    "Longitude": -83.1052028,
    "Pin Type": "familyPin",
    "id": 365,
    "Name": "KulagasFamilygarden",
    "Size": "small_10x10",
    "City": "Madison Hgts",
    "Country": "MI",
    "Zip/Postal Code": 48011
  },
  {
    "Latitude": 42.499335,
    "Longitude": -83.22829,
    "Pin Type": "familyPin",
    "id": 366,
    "Name": "Work",
    "Size": "small_10x10",
    "City": "Harper Woods",
    "Country": "MI",
    "Zip/Postal Code": 48076
  },
  {
    "Latitude": 42.499335,
    "Longitude": -83.22829,
    "Pin Type": "familyPin",
    "id": 367,
    "Name": "Fairy Paradise",
    "Size": "small_10x10",
    "City": "Royal Oak",
    "Country": "MI",
    "Zip/Postal Code": 48076
  },
  {
    "Latitude": 42.427636,
    "Longitude": -83.19547,
    "Pin Type": "familyPin",
    "id": 368,
    "Name": "Midaz",
    "Size": "planter_box_etc",
    "City": "Detroit",
    "Country": "MI",
    "Zip/Postal Code": 48235
  },
  {
    "Latitude": 42.459022,
    "Longitude": -83.09819,
    "Pin Type": "familyPin",
    "id": 369,
    "Name": "Julies Heart",
    "Size": "large_over_20x20",
    "City": "Hazel Park",
    "Country": "MI",
    "Zip/Postal Code": 48030
  },
  {
    "Latitude": 42.466086,
    "Longitude": -82.94641,
    "Pin Type": "familyPin",
    "id": 370,
    "Name": "Julies Heart",
    "Size": "large_over_20x20",
    "City": "Detrpot",
    "Country": "MI",
    "Zip/Postal Code": 48021
  },
  {
    "Latitude": 42.824095,
    "Longitude": -82.66522,
    "Pin Type": "familyPin",
    "id": 371,
    "Name": "Hildas Garden",
    "Size": "small_10x10",
    "City": "Royal Oak",
    "Country": "MI",
    "Zip/Postal Code": 48061
  },
  {
    "Latitude": 42.465886,
    "Longitude": -83.056,
    "Pin Type": "familyPin",
    "id": 372,
    "Name": "Garden of Plenty",
    "Size": "small_10x10",
    "City": "Warren",
    "Country": "MI",
    "Zip/Postal Code": 48091
  },
  {
    "Latitude": 42.467235,
    "Longitude": -83.17952,
    "Pin Type": "familyPin",
    "id": 373,
    "Name": "Tashas gardem",
    "Size": "small_10x10",
    "City": "Oak Park",
    "Country": "MI",
    "Zip/Postal Code": 48237
  },
  {
    "Latitude": 42.459022,
    "Longitude": -83.09819,
    "Pin Type": "familyPin",
    "id": 374,
    "Name": "The Yellow Garden",
    "Size": "planter_box_etc",
    "City": "Hazel Park",
    "Country": "MI",
    "Zip/Postal Code": 48030
  },
  {
    "Latitude": 42.501385,
    "Longitude": -83.10474,
    "Pin Type": "familyPin",
    "id": 375,
    "Name": "Ben Bee",
    "Size": "small_10x10",
    "City": "Madison Hgts",
    "Country": "MI",
    "Zip/Postal Code": 48071
  },
  {
    "Latitude": 42.375237,
    "Longitude": -83.07837,
    "Pin Type": "friendPin",
    "id": 376,
    "Name": "Northend Neighborhood Patrol",
    "Size": "medium_20x20",
    "City": "Detroit",
    "Country": "Mi",
    "Zip/Postal Code": 48202
  },
  {
    "Latitude": 34.07711,
    "Longitude": -118.30755,
    "Pin Type": "familyPin",
    "id": 377,
    "Name": "M Three",
    "Size": "medium_20x20",
    "City": "Los Angeles",
    "Country": "CA",
    "Zip/Postal Code": 90004
  },
  {
    "Latitude": 34.098859,
    "Longitude": -118.32745,
    "Pin Type": "familyPin",
    "id": 378,
    "Name": "Actors Garden",
    "Size": "small_10x10",
    "City": "Los Angeles",
    "Country": "CA",
    "Zip/Postal Code": 90028
  },
  {
    "Latitude": 34.122058,
    "Longitude": -118.3379,
    "Pin Type": "familyPin",
    "id": 379,
    "Name": "Zinnys Frolic Room",
    "Size": "planter_box_etc",
    "City": "Los Angeles",
    "Country": "CA",
    "Zip/Postal Code": 90068
  },
  {
    "Latitude": 34.03457,
    "Longitude": -118.42843,
    "Pin Type": "familyPin",
    "id": 380,
    "Name": "A Miracle",
    "Size": "small_10x10",
    "City": "Los Angeles",
    "Country": "CA",
    "Zip/Postal Code": 90064
  },
  {
    "Latitude": 34.089459,
    "Longitude": -118.3285,
    "Pin Type": "familyPin",
    "id": 381,
    "Name": "Cardenas",
    "Size": "medium_20x20",
    "City": "Los Angeles",
    "Country": "CA",
    "Zip/Postal Code": 90038
  },
  {
    "Latitude": 34.098908,
    "Longitude": -118.36241,
    "Pin Type": "familyPin",
    "id": 382,
    "Name": "Eden",
    "Size": "small_10x10",
    "City": "Los Angeles",
    "Country": "CA",
    "Zip/Postal Code": 90046
  },
  {
    "Latitude": 34.061611,
    "Longitude": -118.23944,
    "Pin Type": "familyPin",
    "id": 383,
    "Name": "Rose",
    "Size": "small_10x10",
    "City": "Los Angeles",
    "Country": "CA",
    "Zip/Postal Code": 90012
  },
  {
    "Latitude": 34.07711,
    "Longitude": -118.30755,
    "Pin Type": "familyPin",
    "id": 384,
    "Name": "Talin",
    "Size": "small_10x10",
    "City": "Los Angeles",
    "Country": "CA",
    "Zip/Postal Code": 90004
  },
  {
    "Latitude": 42.432686,
    "Longitude": -83.04422,
    "Pin Type": "familyPin",
    "id": 385,
    "Name": "special food garden",
    "Size": "small_10x10",
    "City": "Detroit",
    "Country": "mi",
    "Zip/Postal Code": 48234
  },
  {
    "Latitude": 42.518635,
    "Longitude": -83.16357,
    "Pin Type": "friendPin",
    "id": 386,
    "Name": "my place",
    "Size": "small_10x10",
    "City": "royal oak",
    "Country": "ml",
    "Zip/Postal Code": 48073
  },
  {
    "Latitude": 39.363415,
    "Longitude": -77.37849,
    "Pin Type": "familyPin",
    "id": 387,
    "Name": "A F Garden",
    "Size": "medium_20x20",
    "City": "Frederick",
    "Country": "Ma",
    "Zip/Postal Code": 21704
  },
  {
    "Latitude": 38.893311,
    "Longitude": -77.014647,
    "Pin Type": "familyPin",
    "id": 388,
    "Name": "Patricias Garden",
    "Size": "planter_box_etc",
    "City": "Rockville",
    "Country": "Ma",
    "Zip/Postal Code": 20053
  },
  {
    "Latitude": 39.328957,
    "Longitude": -76.63361,
    "Pin Type": "friendPin",
    "id": 389,
    "Name": "Lucky Garden",
    "Size": "small_10x10",
    "City": "Baltimore",
    "Country": "Ma",
    "Zip/Postal Code": 21211
  },
  {
    "Latitude": 39.105015,
    "Longitude": -76.74126,
    "Pin Type": "familyPin",
    "id": 390,
    "Name": "Angelas Garden",
    "Size": "planter_box_etc",
    "City": "Ft Mende",
    "Country": "Ma",
    "Zip/Postal Code": 20755
  },
  {
    "Latitude": 39.328957,
    "Longitude": -76.63361,
    "Pin Type": "familyPin",
    "id": 391,
    "Name": "J W Garden",
    "Size": "planter_box_etc",
    "City": "Baltimore",
    "Country": "Ma",
    "Zip/Postal Code": 21211
  },
  {
    "Latitude": 39.376879,
    "Longitude": -76.7287,
    "Pin Type": "friendPin",
    "id": 392,
    "Name": "Taras Garden",
    "Size": "planter_box_etc",
    "City": "Baltimore",
    "Country": "Ma",
    "Zip/Postal Code": 21208
  },
  {
    "Latitude": 41.8483253,
    "Longitude": -70.697053,
    "Pin Type": "familyPin",
    "id": 393,
    "Name": "Oscars Garden",
    "Size": "small_10x10",
    "City": "Jessup",
    "Country": "Ma",
    "Zip/Postal Code": 20994
  },