Latitude:  36.164556
Longitude:  -86.77738
Map Pin Type:  familyPin
ID:  1
Name:  Encore Herb Garden
Size:  planter_box_etc
City:  Nashville
State:  TN
ZIP:  37201
---------------------------------------------------
Latitude:  42.488735
Longitude:  -83.13752
Map Pin Type:  friendPin
ID:  2
Name:  damoff
Size:  small_10x10
City:  Royal Oak
State:  Mi
ZIP:  48067
---------------------------------------------------
Latitude:  42.499335
Longitude:  -83.22829
Map Pin Type:  familyPin
ID:  3
Name:  Pleasureville
Size:  small_10x10
City:  Southfield
State:  Mi
ZIP:  48076
---------------------------------------------------
Latitude:  54.5704551
Longitude:  -1.32898209999996
Map Pin Type:  friendPin
ID:  4
Name:  Blakeston Eco Garden
Size:  large_over_20x20
City:  Stockton-On-Tees
State:  Cl
ZIP:  TS19
---------------------------------------------------
Latitude:  54.612537
Longitude:  -1.29096100000004
Map Pin Type:  familyPin
ID:  5
Name:  Bede Eco Garden
Size:  large_over_20x20
City:  Billingham
State:  Te
ZIP:  TS23
---------------------------------------------------
Latitude:  54.132775
Longitude:  -0.783321000000001
Map Pin Type:  familyPin
ID:  6
Name:  Saddington garden
Size:  small_10x10
City:  Norton
State:  Cl
ZIP:  TS20
---------------------------------------------------
Latitude:  42.396736
Longitude:  -83.14152
Map Pin Type:  familyPin
ID:  7
Name:  Dreams Come True
Size:  small_10x10
City:  Detroit
State:  MI
ZIP:  48238
---------------------------------------------------
Latitude:  47.497912
Longitude:  19.0402349999999
Map Pin Type:  familyPin
ID:  8
Name:  Susu's kitchen
Size:  planter_box_etc
City:  Budapest
State:  Bu
ZIP:  
---------------------------------------------------
Latitude:  40.841522
Longitude:  -73.28001
Map Pin Type:  familyPin
ID:  9
Name:  7 Angelica Farms
Size:  large_over_20x20
City:  Commack
State:  NY
ZIP:  11725
---------------------------------------------------
Latitude:  34.029112
Longitude:  -118.3183
Map Pin Type:  friendPin
ID:  10
Name:  Garden School Foundation
Size:  large_over_20x20
City:  Los Angeles
State:  CA
ZIP:  90018
---------------------------------------------------
Latitude:  35.767829
Longitude:  -78.5861
Map Pin Type:  friendPin
ID:  11
Name:  Word of God Fellowship Church
Size:  medium_20x20
City:  Raleigh
State:  NC
ZIP:  27610
---------------------------------------------------
Latitude:  39.961612
Longitude:  -75.19957
Map Pin Type:  friendPin
ID:  12
Name:  Woodland Presbyterian Church
Size:  medium_20x20
City:  Philadelphia
State:  PA
ZIP:  19104
---------------------------------------------------
Latitude:  39.173409
Longitude:  -84.51295
Map Pin Type:  friendPin
ID:  13
Name:  Winton Hills Recreation
Size:  medium_20x20
City:  Cincinnati
State:  OH
ZIP:  45232
---------------------------------------------------
Latitude:  42.5065
Longitude:  -83.35363
Map Pin Type:  friendPin
ID:  14
Name:  West End
Size:  medium_20x20
City:  Detroit
State:  MI
ZIP:  48334
---------------------------------------------------
Latitude:  38.676851
Longitude:  -90.24009
Map Pin Type:  friendPin
ID:  15
Name:  Wesley House
Size:  medium_20x20
City:  St. Louis
State:  MO
ZIP:  63115
---------------------------------------------------
Latitude:  34.044662
Longitude:  -118.24255
Map Pin Type:  friendPin
ID:  16
Name:  Weingart Center
Size:  medium_20x20
City:  Los Angeles
State:  CA
ZIP:  90013
---------------------------------------------------
Latitude:  38.691901
Longitude:  -90.25992
Map Pin Type:  friendPin
ID:  17
Name:  Walbridge CESS
Size:  medium_20x20
City:  St. Louis
State:  MO
ZIP:  63120
---------------------------------------------------
Latitude:  44.971798
Longitude:  -93.30273
Map Pin Type:  friendPin
ID:  18
Name:  Van White
Size:  medium_20x20
City:  Minneapolis
State:  MN
ZIP:  55405
---------------------------------------------------
Latitude:  42.5065
Longitude:  -83.35363
Map Pin Type:  friendPin
ID:  19
Name:  Van Dyke and Knodell
Size:  medium_20x20
City:  Detroit
State:  MI
ZIP:  48334
---------------------------------------------------
Latitude:  38.836145
Longitude:  -77.00058
Map Pin Type:  friendPin
ID:  20
Name:  Valley Site
Size:  medium_20x20
City:  Washington
State:  DC
ZIP:  20032
---------------------------------------------------
Latitude:  34.026448
Longitude:  -118.2829
Map Pin Type:  friendPin
ID:  21
Name:  USC
Size:  medium_20x20
City:  Los Angeles
State:  CA
ZIP:  90007
---------------------------------------------------
Latitude:  44.934915
Longitude:  -93.25424
Map Pin Type:  friendPin
ID:  22
Name:  Urban Arts Academy
Size:  medium_20x20
City:  Minneapolis
State:  MN
ZIP:  55407
---------------------------------------------------
Latitude:  38.907711
Longitude:  -77.01732
Map Pin Type:  friendPin
ID:  23
Name:  UPO
Size:  medium_20x20
City:  Washington
State:  DC
ZIP:  20001
---------------------------------------------------
Latitude:  35.997193
Longitude:  -78.89731
Map Pin Type:  friendPin
ID:  24
Name:  Union Baptist Church
Size:  medium_20x20
City:  Durham
State:  NC
ZIP:  27701
---------------------------------------------------
Latitude:  44.999165
Longitude:  -93.29823
Map Pin Type:  friendPin
ID:  25
Name:  U-WHO Garden
Size:  medium_20x20
City:  Minneapolis
State:  MN
ZIP:  55411
---------------------------------------------------
Latitude:  40.820012
Longitude:  -74.36474
Map Pin Type:  friendPin
ID:  26
Name:  TRISCUIT HQ
Size:  medium_20x20
City:  Hanover
State:  NJ
ZIP:  07936
---------------------------------------------------
Latitude:  39.784622
Longitude:  -104.96214
Map Pin Type:  friendPin
ID:  27
Name:  The Growhaus
Size:  medium_20x20
City:  Denver
State:  CO
ZIP:  80216
---------------------------------------------------
Latitude:  34.007063
Longitude:  -118.25868
Map Pin Type:  friendPin
ID:  28
Name:  The Accelerated School
Size:  medium_20x20
City:  Los Angeles
State:  CA
ZIP:  90011
---------------------------------------------------
Latitude:  39.698137
Longitude:  -105.03483
Map Pin Type:  friendPin
ID:  29
Name:  SWIC
Size:  medium_20x20
City:  Denver
State:  CO
ZIP:  80219
---------------------------------------------------
Latitude:  35.640589
Longitude:  -120.70418
Map Pin Type:  friendPin
ID:  30
Name:  Steinbeck Vineyards &amp;amp; Winery
Size:  medium_20x20
City:  Paso Robles
State:  CA
ZIP:  93446
---------------------------------------------------
Latitude:  38.631551
Longitude:  -90.193
Map Pin Type:  friendPin
ID:  31
Name:  St Louis Rams
Size:  medium_20x20
City:  St. Louis
State:  MO
ZIP:  63101
---------------------------------------------------
Latitude:  44.953665
Longitude:  -93.15922
Map Pin Type:  friendPin
ID:  32
Name:  SPROUT at Hamline Church
Size:  medium_20x20
City:  St. Paul
State:  MN
ZIP:  55104
---------------------------------------------------
Latitude:  44.953665
Longitude:  -93.15922
Map Pin Type:  friendPin
ID:  33
Name:  SPROUT at Hamline
Size:  medium_20x20
City:  St. Paul
State:  MN
ZIP:  55104
---------------------------------------------------
Latitude:  39.759386
Longitude:  -104.91945
Map Pin Type:  friendPin
ID:  34
Name:  Senator Site
Size:  medium_20x20
City:  Denver
State:  CO
ZIP:  80207
---------------------------------------------------
Latitude:  42.488735
Longitude:  -83.13752
Map Pin Type:  friendPin
ID:  35
Name:  Royal Oak Farm
Size:  medium_20x20
City:  Detroit
State:  MI
ZIP:  48067
---------------------------------------------------
Latitude:  34.259052
Longitude:  -118.59426
Map Pin Type:  friendPin
ID:  36
Name:  Ride On
Size:  medium_20x20
City:  Chatsworth
State:  CA
ZIP:  91311
---------------------------------------------------
Latitude:  34.03457
Longitude:  -118.42843
Map Pin Type:  friendPin
ID:  37
Name:  Richland Avenue Elementary School
Size:  medium_20x20
City:  Los Angeles
State:  CA
ZIP:  90064
---------------------------------------------------
Latitude:  27.993498
Longitude:  -82.40914
Map Pin Type:  friendPin
ID:  38
Name:  Project NOW
Size:  medium_20x20
City:  Tampa
State:  FL
ZIP:  33610
---------------------------------------------------
Latitude:  33.962714
Longitude:  -118.276
Map Pin Type:  friendPin
ID:  39
Name:  Praises of Zion/Personal Involvement Center
Size:  medium_20x20
City:  Los Angeles
State:  CA
ZIP:  90003
---------------------------------------------------
Latitude:  45.011215
Longitude:  -93.15536
Map Pin Type:  friendPin
ID:  40
Name:  Peace Lutheran
Size:  medium_20x20
City:  Lauderdale
State:  MN
ZIP:  55113
---------------------------------------------------
Latitude:  33.727807
Longitude:  -84.41983
Map Pin Type:  friendPin
ID:  41
Name:  PCIA
Size:  medium_20x20
City:  Atlanta
State:  GA
ZIP:  30310
---------------------------------------------------
Latitude:  41.695434
Longitude:  -87.62255
Map Pin Type:  friendPin
ID:  42
Name:  Parnell Community Garden
Size:  medium_20x20
City:  Chicago
State:  IL
ZIP:  60628
---------------------------------------------------
Latitude:  47.6062095
Longitude:  -122.3320708
Map Pin Type:  friendPin
ID:  43
Name:  Park Place
Size:  medium_20x20
City:  Seattle
State:  WA
ZIP:  98216
---------------------------------------------------
Latitude:  42.5065
Longitude:  -83.35363
Map Pin Type:  friendPin
ID:  44
Name:  Operation Get Down
Size:  medium_20x20
City:  Detroit
State:  MI
ZIP:  48334
---------------------------------------------------
Latitude:  42.033313
Longitude:  -87.75764
Map Pin Type:  friendPin
ID:  45
Name:  Oakton Community College
Size:  medium_20x20
City:  Skokie
State:  IL
ZIP:  60077
---------------------------------------------------
Latitude:  44.999165
Longitude:  -93.29823
Map Pin Type:  friendPin
ID:  46
Name:  NorthPoint
Size:  medium_20x20
City:  Minneapolis
State:  MN
ZIP:  55411
---------------------------------------------------
Latitude:  33.466392
Longitude:  -112.04875
Map Pin Type:  friendPin
ID:  47
Name:  New Hope in Christ Church
Size:  medium_20x20
City:  Phoenix
State:  AZ
ZIP:  85006
---------------------------------------------------
Latitude:  41.850532
Longitude:  -87.6699
Map Pin Type:  friendPin
ID:  48
Name:  Moraine Valley Comm. College
Size:  medium_20x20
City:  Chicago
State:  IL
ZIP:  60608
---------------------------------------------------
Latitude:  34.052561
Longitude:  -118.26434
Map Pin Type:  friendPin
ID:  49
Name:  Miguel Contreras Learning Complex
Size:  medium_20x20
City:  Los Angeles
State:  CA
ZIP:  90017
---------------------------------------------------
Latitude:  42.5065
Longitude:  -83.35363
Map Pin Type:  friendPin
ID:  50
Name:  Midland/Princeston
Size:  medium_20x20
City:  Detroit
State:  MI
ZIP:  48334
---------------------------------------------------
Latitude:  36.362525
Longitude:  -94.23308
Map Pin Type:  friendPin
ID:  51
Name:  Metro Market
Size:  medium_20x20
City:  Bentonville
State:  AR
ZIP:  72712
---------------------------------------------------
Latitude:  42.5065
Longitude:  -83.35363
Map Pin Type:  friendPin
ID:  52
Name:  Martha Ann
Size:  medium_20x20
City:  Detroit
State:  MI
ZIP:  48334
---------------------------------------------------
Latitude:  33.960041
Longitude:  -118.3949
Map Pin Type:  friendPin
ID:  53
Name:  Loyola Marymount University
Size:  medium_20x20
City:  Los Angeles
State:  CA
ZIP:  90045
---------------------------------------------------
Latitude:  34.000219
Longitude:  -118.22605
Map Pin Type:  friendPin
ID:  54
Name:  Los Angeles Regional Food Bank
Size:  medium_20x20
City:  Vernon
State:  CA
ZIP:  90058
---------------------------------------------------
Latitude:  38.656701
Longitude:  -90.24397
Map Pin Type:  friendPin
ID:  55
Name:  Lewis Place
Size:  medium_20x20
City:  St. Louis
State:  MO
ZIP:  63113
---------------------------------------------------
Latitude:  44.999165
Longitude:  -93.29823
Map Pin Type:  friendPin
ID:  56
Name:  Kwanzaa Comm. Church
Size:  medium_20x20
City:  Minneapolis
State:  MN
ZIP:  55411
---------------------------------------------------
Latitude:  41.764779
Longitude:  -88.14579
Map Pin Type:  friendPin
ID:  57
Name:  Kraft HQ in Naperville
Size:  medium_20x20
City:  Naperville
State:  IL
ZIP:  60540
---------------------------------------------------
Latitude:  42.395904
Longitude:  -82.99632
Map Pin Type:  friendPin
ID:  58
Name:  Kettering High School
Size:  medium_20x20
City:  Detroit
State:  MI
ZIP:  48213
---------------------------------------------------
Latitude:  40.81321
Longitude:  -73.88755
Map Pin Type:  friendPin
ID:  59
Name:  Huntspointe Riverside
Size:  medium_20x20
City:  South Bronx
State:  NY
ZIP:  10474
---------------------------------------------------
Latitude:  44.999165
Longitude:  -93.29823
Map Pin Type:  friendPin
ID:  60
Name:  Homewood Apartments
Size:  medium_20x20
City:  Minneapolis
State:  MN
ZIP:  55411
---------------------------------------------------
Latitude:  34.052561
Longitude:  -118.26434
Map Pin Type:  friendPin
ID:  61
Name:  Homegirl Caf&Aring;&frac12;/Homeboy Industries
Size:  medium_20x20
City:  Los Angeles
State:  CA
ZIP:  90017
---------------------------------------------------
Latitude:  33.960041
Longitude:  -118.3949
Map Pin Type:  friendPin
ID:  62
Name:  Holy Nativity Episcopal Church
Size:  medium_20x20
City:  Westchester
State:  CA
ZIP:  90045
---------------------------------------------------
Latitude:  42.375237
Longitude:  -83.07837
Map Pin Type:  friendPin
ID:  63
Name:  Herman Kiefer Complex
Size:  medium_20x20
City:  Detroit
State:  MI
ZIP:  48202
---------------------------------------------------
Latitude:  44.964115
Longitude:  -93.12261
Map Pin Type:  friendPin
ID:  64
Name:  Greater Frogtown CDC
Size:  medium_20x20
City:  St. Paul
State:  MN
ZIP:  55103
---------------------------------------------------
Latitude:  44.982515
Longitude:  -93.17489
Map Pin Type:  friendPin
ID:  65
Name:  Great River School
Size:  medium_20x20
City:  St. Paul
State:  MN
ZIP:  55108
---------------------------------------------------
Latitude:  44.913815
Longitude:  -93.17459
Map Pin Type:  friendPin
ID:  66
Name:  Graham Place
Size:  medium_20x20
City:  St. Paul
State:  MN
ZIP:  55116
---------------------------------------------------
Latitude:  32.710082
Longitude:  -96.7972
Map Pin Type:  friendPin
ID:  67
Name:  Gilgal Baptist Church
Size:  medium_20x20
City:  Dallas
State:  TX
ZIP:  75216
---------------------------------------------------
Latitude:  42.5065
Longitude:  -83.35363
Map Pin Type:  friendPin
ID:  68
Name:  Gateway
Size:  medium_20x20
City:  Detroit
State:  MI
ZIP:  48334
---------------------------------------------------
Latitude:  42.2771417
Longitude:  -71.0913748
Map Pin Type:  friendPin
ID:  69
Name:  Gallivan Com. Center
Size:  medium_20x20
City:  Mattapan
State:  MA
ZIP:  2126
---------------------------------------------------
Latitude:  39.15201
Longitude:  -84.38348
Map Pin Type:  friendPin
ID:  70
Name:  Gaines United Methodist Church
Size:  medium_20x20
City:  Cincinnati
State:  OH
ZIP:  45227
---------------------------------------------------
Latitude:  40.900819
Longitude:  -73.90347
Map Pin Type:  friendPin
ID:  71
Name:  Friends of Van Cortland Park
Size:  medium_20x20
City:  Bronx
State:  NY
ZIP:  10471
---------------------------------------------------
Latitude:  40.805968
Longitude:  -73.91628
Map Pin Type:  friendPin
ID:  72
Name:  Friends of Brook Park
Size:  medium_20x20
City:  Bronx
State:  NY
ZIP:  10454
---------------------------------------------------
Latitude:  42.567543
Longitude:  -83.149978
Map Pin Type:  friendPin
ID:  73
Name:  Fox 2 News
Size:  medium_20x20
City:  Detroit
State:  MI
ZIP:  48037
---------------------------------------------------
Latitude:  42.3875968
Longitude:  -71.0994968
Map Pin Type:  friendPin
ID:  74
Name:  First Congregational Church of Somerville
Size:  medium_20x20
City:  Somerville
State:  MA
ZIP:  2144
---------------------------------------------------
Latitude:  41.719933
Longitude:  -87.70249
Map Pin Type:  friendPin
ID:  75
Name:  Evergreen Park
Size:  medium_20x20
City:  Chicago
State:  IL
ZIP:  60805
---------------------------------------------------
Latitude:  42.375787
Longitude:  -83.10849
Map Pin Type:  friendPin
ID:  76
Name:  Elmhurst Home
Size:  medium_20x20
City:  Detroit
State:  MI
ZIP:  48206
---------------------------------------------------
Latitude:  42.5065
Longitude:  -83.35363
Map Pin Type:  friendPin
ID:  77
Name:  E. Grand Blvd &amp;amp; Lafayette
Size:  medium_20x20
City:  Detroit
State:  MI
ZIP:  48334
---------------------------------------------------
Latitude:  44.953665
Longitude:  -93.15922
Map Pin Type:  friendPin
ID:  78
Name:  Dunning Community Garden
Size:  medium_20x20
City:  St. Paul
State:  MN
ZIP:  55104
---------------------------------------------------
Latitude:  42.352837
Longitude:  -83.02449
Map Pin Type:  friendPin
ID:  79
Name:  Cutters Bar and Grill
Size:  medium_20x20
City:  Detroit
State:  MI
ZIP:  48207
---------------------------------------------------
Latitude:  44.989065
Longitude:  -93.10666
Map Pin Type:  friendPin
ID:  80
Name:  Crossroads Elementary
Size:  medium_20x20
City:  St. Paul
State:  MN
ZIP:  55117
---------------------------------------------------
Latitude:  45.014764
Longitude:  -93.33965
Map Pin Type:  friendPin
ID:  81
Name:  Courage Center
Size:  medium_20x20
City:  Golden Valley
State:  MN
ZIP:  55422
---------------------------------------------------
Latitude:  44.967565
Longitude:  -93.05001
Map Pin Type:  friendPin
ID:  82
Name:  Cornerstone Montessori
Size:  medium_20x20
City:  St. Paul
State:  MN
ZIP:  55106
---------------------------------------------------
Latitude:  38.79505
Longitude:  -90.28578
Map Pin Type:  friendPin
ID:  83
Name:  Computer Village
Size:  medium_20x20
City:  Florissant
State:  MO
ZIP:  63033
---------------------------------------------------
Latitude:  39.15201
Longitude:  -84.38348
Map Pin Type:  friendPin
ID:  84
Name:  Cincinnati Bibleway Church
Size:  medium_20x20
City:  Cincinnati
State:  OH
ZIP:  45227
---------------------------------------------------
Latitude:  42.421936
Longitude:  -83.09981
Map Pin Type:  friendPin
ID:  85
Name:  Christian Guidance Center
Size:  medium_20x20
City:  Detroit
State:  MI
ZIP:  48203
---------------------------------------------------
Latitude:  42.5065
Longitude:  -83.35363
Map Pin Type:  friendPin
ID:  86
Name:  Christian Guidance Center
Size:  medium_20x20
City:  Detroit
State:  MI
ZIP:  48334
---------------------------------------------------
Latitude:  34.067409
Longitude:  -118.47528
Map Pin Type:  friendPin
ID:  87
Name:  Chabad Israel Center School
Size:  medium_20x20
City:  Los Angeles
State:  CA
ZIP:  90049
---------------------------------------------------
Latitude:  42.536402
Longitude:  -82.95044
Map Pin Type:  friendPin
ID:  88
Name:  Central High School
Size:  medium_20x20
City:  Detroit
State:  MI
ZIP:  48026
---------------------------------------------------
Latitude:  33.927471
Longitude:  -118.24778
Map Pin Type:  friendPin
ID:  89
Name:  Carver Elementary
Size:  medium_20x20
City:  Los Angeles
State:  CA
ZIP:  90059
---------------------------------------------------
Latitude:  45.027715
Longitude:  -93.30337
Map Pin Type:  friendPin
ID:  90
Name:  Camden Apartments
Size:  medium_20x20
City:  Minneapolis
State:  MN
ZIP:  55412
---------------------------------------------------
Latitude:  42.3875968
Longitude:  -71.0994968
Map Pin Type:  friendPin
ID:  91
Name:  Cambridge Health Alliance (CHA)
Size:  medium_20x20
City:  Somerville
State:  MA
ZIP:  2143
---------------------------------------------------
Latitude:  40.826201
Longitude:  -73.94879
Map Pin Type:  friendPin
ID:  92
Name:  Brotherhood 7 Sistersol
Size:  medium_20x20
City:  New York
State:  NY
ZIP:  10031
---------------------------------------------------
Latitude:  44.999165
Longitude:  -93.29823
Map Pin Type:  friendPin
ID:  93
Name:  Bright Water Montessori
Size:  medium_20x20
City:  Minneapolis
State:  MN
ZIP:  55411
---------------------------------------------------
Latitude:  34.067409
Longitude:  -118.47528
Map Pin Type:  friendPin
ID:  94
Name:  Brentwood Science Magnet School
Size:  medium_20x20
City:  Los Angeles
State:  CA
ZIP:  90049
---------------------------------------------------
Latitude:  45.027715
Longitude:  -93.30337
Map Pin Type:  friendPin
ID:  95
Name:  Breen Jones
Size:  medium_20x20
City:  Minneapolis
State:  MN
ZIP:  55412
---------------------------------------------------
Latitude:  42.338137
Longitude:  -83.12785
Map Pin Type:  friendPin
ID:  96
Name:  Boys &amp; Girls Club
Size:  medium_20x20
City:  Detroit
State:  MI
ZIP:  48210
---------------------------------------------------
Latitude:  42.5065
Longitude:  -83.35363
Map Pin Type:  friendPin
ID:  97
Name:  Birmingham Temple
Size:  medium_20x20
City:  Detroit
State:  MI
ZIP:  48334
---------------------------------------------------
Latitude:  33.496091
Longitude:  -112.21405
Map Pin Type:  friendPin
ID:  98
Name:  Abundant Life Center
Size:  medium_20x20
City:  Phoenix
State:  AZ
ZIP:  85033
---------------------------------------------------
Latitude:  44.999165
Longitude:  -93.29823
Map Pin Type:  friendPin
ID:  99
Name:  12th and Morgan
Size:  medium_20x20
City:  Minneapolis
State:  MN
ZIP:  55411
---------------------------------------------------
Latitude:  42.365337
Longitude:  -83.14254
Map Pin Type:  friendPin
ID:  100
Name:  Care N Share
Size:  large_over_20x20
City:  Detroit
State:  MI
ZIP:  48204
---------------------------------------------------
Latitude:  42.348937
Longitude:  -83.08994
Map Pin Type:  familyPin
ID:  101
Name:  The Brown's
Size:  large_over_20x20
City:  Detroit
State:  Mi
ZIP:  48208
---------------------------------------------------
Latitude:  34.143856
Longitude:  -118.39429
Map Pin Type:  familyPin
ID:  102
Name:  Mi Jardin
Size:  planter_box_etc
City:  studio city
State:  Ca
ZIP:  91604
---------------------------------------------------
Latitude:  42.375787
Longitude:  -83.10849
Map Pin Type:  friendPin
ID:  103
Name:  Linwood &amp;amp; Clairmount
Size:  large_over_20x20
City:  Detroit
State:  MI
ZIP:  48206
---------------------------------------------------
Latitude:  42.410037
Longitude:  -83.05826
Map Pin Type:  friendPin
ID:  104
Name:  Sunshine garden
Size:  small_10x10
City:  Hamtramck
State:  Mi
ZIP:  48212
---------------------------------------------------
Latitude:  42.426786
Longitude:  -83.14969
Map Pin Type:  familyPin
ID:  105
Name:  Mema's Doll
Size:  planter_box_etc
City:  Detroit
State:  Mi
ZIP:  48221
---------------------------------------------------
Latitude:  18.4088387
Longitude:  -77.9334851
Map Pin Type:  familyPin
ID:  106
Name:  Anchovy Primary School
Size:  medium_20x20
City:  Anchoby
State:  St
ZIP:  
---------------------------------------------------
Latitude:  38.96634
Longitude:  -104.54313
Map Pin Type:  friendPin
ID:  107
Name:  Horsewings Creative Garden
Size:  medium_20x20
City:  Peyton
State:  CO
ZIP:  80831
---------------------------------------------------
Latitude:  42.375787
Longitude:  -83.10849
Map Pin Type:  familyPin
ID:  108
Name:  Pettie's Playground
Size:  planter_box_etc
City:  Detroit
State:  Mi
ZIP:  48206
---------------------------------------------------
Latitude:  33.2000368
Longitude:  -117.2425355
Map Pin Type:  friendPin
ID:  109
Name:  Happy Earth Garden
Size:  medium_20x20
City:  Vista
State:  Ca
ZIP:  92081
---------------------------------------------------
Latitude:  34.063209
Longitude:  -118.43643
Map Pin Type:  familyPin
ID:  110
Name:  Kathleen's garden
Size:  medium_20x20
City:  Los Angeles
State:  Ca
ZIP:  90024
---------------------------------------------------
Latitude:  29.054976
Longitude:  -82.04255
Map Pin Type:  familyPin
ID:  111
Name:  Small Greens
Size:  planter_box_etc
City:  Belleview
State:  Fl
ZIP:  34420
---------------------------------------------------
Latitude:  34.098908
Longitude:  -118.36241
Map Pin Type:  familyPin
ID:  112
Name:  LaGarden
Size:  planter_box_etc
City:  Los Angeles
State:  CA
ZIP:  90046
---------------------------------------------------
Latitude:  34.088808
Longitude:  -118.40612
Map Pin Type:  familyPin
ID:  113
Name:  Almost paradise
Size:  small_10x10
City:  Beverly hills
State:  Ca
ZIP:  90210
---------------------------------------------------
Latitude:  34.151066
Longitude:  -118.08974
Map Pin Type:  familyPin
ID:  114
Name:  pasadenia
Size:  small_10x10
City:  pasadenia
State:  ca
ZIP:  91107
---------------------------------------------------
Latitude:  47.2528768
Longitude:  -122.4442906
Map Pin Type:  familyPin
ID:  115
Name:  Grandpa's Garden
Size:  small_10x10
City:  Tacoma
State:  WA
ZIP:  98444
---------------------------------------------------
Latitude:  38.559302
Longitude:  -90.25174
Map Pin Type:  familyPin
ID:  116
Name:  My Veggie Garden
Size:  medium_20x20
City:  St. Louis
State:  MO
ZIP:  63111
---------------------------------------------------
Latitude:  43.96977
Longitude:  -90.80796
Map Pin Type:  familyPin
ID:  117
Name:  Marcy's Purpose
Size:  medium_20x20
City:  Sparta
State:  WI
ZIP:  54656
---------------------------------------------------
Latitude:  40.681798
Longitude:  -75.22082
Map Pin Type:  friendPin
ID:  118
Name:  Urban Farm Initiave
Size:  large_over_20x20
City:  Easton
State:  PA
ZIP:  18042
---------------------------------------------------
Latitude:  43.216505
Longitude:  -123.3417381
Map Pin Type:  familyPin
ID:  119
Name:  The Backyard Barnyard
Size:  small_10x10
City:  Roseburg
State:  OR
ZIP:  97471
---------------------------------------------------
Latitude:  41.41362
Longitude:  -73.59556
Map Pin Type:  familyPin
ID:  120
Name:  Jenny's Garden
Size:  large_over_20x20
City:  Brewster
State:  Ne
ZIP:  10509
---------------------------------------------------
Latitude:  34.063645
Longitude:  -117.89743
Map Pin Type:  familyPin
ID:  121
Name:  Carshop
Size:  medium_20x20
City:  West Covina
State:  Ca
ZIP:  91791
---------------------------------------------------
Latitude:  33.142706
Longitude:  -117.03049
Map Pin Type:  familyPin
ID:  122
Name:  Walford's Garden
Size:  small_10x10
City:  San Clemente
State:  CA
ZIP:  92027
---------------------------------------------------
Latitude:  33.639227
Longitude:  -117.58518
Map Pin Type:  familyPin
ID:  123
Name:  Suchy
Size:  medium_20x20
City:  Trabuco canyon
State:  CA
ZIP:  92679
---------------------------------------------------
Latitude:  33.8318
Longitude:  -117.84739
Map Pin Type:  familyPin
ID:  124
Name:  Fresh Family Food
Size:  medium_20x20
City:  Orange
State:  Ca
ZIP:  92865
---------------------------------------------------
Latitude:  38.347174
Longitude:  -122.69537
Map Pin Type:  friendPin
ID:  125
Name:  Growing Your Greens
Size:  large_over_20x20
City:  Rohnert Park
State:  CA
ZIP:  94928
---------------------------------------------------
Latitude:  33.732368
Longitude:  -118.28905
Map Pin Type:  friendPin
ID:  126
Name:  LR garden
Size:  small_10x10
City:  San Pedro Ct
State:  CA
ZIP:  90731
---------------------------------------------------
Latitude:  34.176238
Longitude:  -118.61992
Map Pin Type:  familyPin
ID:  127
Name:  PR Garden
Size:  medium_20x20
City:  Woodland Hills
State:  CA
ZIP:  91367
---------------------------------------------------
Latitude:  34.209407
Longitude:  -118.57735
Map Pin Type:  familyPin
ID:  128
Name:  M Garden
Size:  small_10x10
City:  Winnetka
State:  CA
ZIP:  91306
---------------------------------------------------
Latitude:  33.792687
Longitude:  -117.79975
Map Pin Type:  familyPin
ID:  129
Name:  Silver Garden
Size:  small_10x10
City:  Orange
State:  CA
ZIP:  92869
---------------------------------------------------
Latitude:  33.675893
Longitude:  -117.34946
Map Pin Type:  familyPin
ID:  130
Name:  DJ's Garden
Size:  medium_20x20
City:  Lake Elsinore
State:  CA
ZIP:  92530
---------------------------------------------------
Latitude:  33.720017
Longitude:  -118.04614
Map Pin Type:  familyPin
ID:  131
Name:  Songbird Garden
Size:  small_10x10
City:  Huntington Beach
State:  CA
ZIP:  92649
---------------------------------------------------
Latitude:  34.050505
Longitude:  -118.53374
Map Pin Type:  familyPin
ID:  132
Name:  True Garden
Size:  planter_box_etc
City:  Pacific Palisades
State:  CA
ZIP:  90272
---------------------------------------------------
Latitude:  34.192102
Longitude:  -118.14206
Map Pin Type:  familyPin
ID:  133
Name:  JVB Garden
Size:  small_10x10
City:  Altadena
State:  CA
ZIP:  91001
---------------------------------------------------
Latitude:  34.265003
Longitude:  -118.77177
Map Pin Type:  familyPin
ID:  134
Name:  KD Garden
Size:  planter_box_etc
City:  Simi Valley
State:  CA
ZIP:  93065
---------------------------------------------------
Latitude:  33.640302
Longitude:  -117.769442
Map Pin Type:  familyPin
ID:  135
Name:  TR Garden
Size:  small_10x10
City:  Fullerton
State:  CA
ZIP:  92836
---------------------------------------------------
Latitude:  32.746018
Longitude:  -117.16715
Map Pin Type:  familyPin
ID:  136
Name:  Happy Garden
Size:  planter_box_etc
City:  Sd
State:  CA
ZIP:  92103
---------------------------------------------------
Latitude:  42.410037
Longitude:  -83.05826
Map Pin Type:  friendPin
ID:  137
Name:  The CH Garden
Size:  small_10x10
City:  Detroit
State:  Mi
ZIP:  48212
---------------------------------------------------
Latitude:  34.002011
Longitude:  -118.43083
Map Pin Type:  familyPin
ID:  138
Name:  KN Family Garden
Size:  small_10x10
City:  Los Angeles
State:  Ca
ZIP:  90066
---------------------------------------------------
Latitude:  34.489466
Longitude:  -117.35321
Map Pin Type:  familyPin
ID:  139
Name:  JMurphy Garden
Size:  planter_box_etc
City:  Victorville
State:  CA
ZIP:  92392
---------------------------------------------------
Latitude:  42.458502
Longitude:  -83.3464
Map Pin Type:  familyPin
ID:  140
Name:  HalleluYah Garden
Size:  medium_20x20
City:  Farmington Hills
State:  MI
ZIP:  48336
---------------------------------------------------
Latitude:  33.8318
Longitude:  -117.84739
Map Pin Type:  familyPin
ID:  141
Name:  mylittleacre
Size:  small_10x10
City:  Orange
State:  CA
ZIP:  92865
---------------------------------------------------
Latitude:  38.876897
Longitude:  -105.30711
Map Pin Type:  familyPin
ID:  142
Name:  summer gardem
Size:  medium_20x20
City:  F;orissant
State:  CO
ZIP:  80816
---------------------------------------------------
Latitude:  34.399992
Longitude:  -117.33999
Map Pin Type:  familyPin
ID:  143
Name:  Lifenfood Garden
Size:  planter_box_etc
City:  Hesperia
State:  CA
ZIP:  92345
---------------------------------------------------
Latitude:  33.844814
Longitude:  -117.95381
Map Pin Type:  familyPin
ID:  144
Name:  Our fun garden
Size:  medium_20x20
City:  Anaheim
State:  CA
ZIP:  92801
---------------------------------------------------
Latitude:  33.844814
Longitude:  -117.95381
Map Pin Type:  familyPin
ID:  145
Name:  Herb Garden
Size:  medium_20x20
City:  Anaheim
State:  CA
ZIP:  92801
---------------------------------------------------
Latitude:  34.002011
Longitude:  -118.43083
Map Pin Type:  familyPin
ID:  146
Name:  Leonards Place
Size:  small_10x10
City:  Anaheim
State:  CA
ZIP:  90066
---------------------------------------------------
Latitude:  33.868314
Longitude:  -118.06754
Map Pin Type:  familyPin
ID:  147
Name:  RoRo's Garden
Size:  small_10x10
City:  Cerritos
State:  CA
ZIP:  90703
---------------------------------------------------
Latitude:  40.625621
Longitude:  -111.8158
Map Pin Type:  familyPin
ID:  148
Name:  Blue Ribbon Garden
Size:  large_over_20x20
City:  Salt Lake City
State:  Ut
ZIP:  84121
---------------------------------------------------
Latitude:  33.611272
Longitude:  -117.66681
Map Pin Type:  friendPin
ID:  149
Name:  Lin's Place
Size:  planter_box_etc
City:  Mission Viejo
State:  CA
ZIP:  92691
---------------------------------------------------
Latitude:  32.742892
Longitude:  -117.12774
Map Pin Type:  friendPin
ID:  150
Name:  ButterflyGarden
Size:  planter_box_etc
City:  San Diego
State:  CA
ZIP:  92104
---------------------------------------------------
Latitude:  42.379436
Longitude:  -83.29105
Map Pin Type:  familyPin
ID:  151
Name:  Simple Man Gardens
Size:  large_over_20x20
City:  Redford
State:  MI
ZIP:  48239
---------------------------------------------------
Latitude:  34.235055
Longitude:  -118.51766
Map Pin Type:  familyPin
ID:  152
Name:  18402 Halsted St Unit 42
Size:  planter_box_etc
City:  Northridge
State:  CA
ZIP:  91325
---------------------------------------------------
Latitude:  44.953665
Longitude:  -93.15922
Map Pin Type:  familyPin
ID:  153
Name:  Holistic Health Farms
Size:  large_over_20x20
City:  St. Paul
State:  Mi
ZIP:  55104
---------------------------------------------------
Latitude:  31.352676
Longitude:  -85.70509
Map Pin Type:  familyPin
ID:  154
Name:  Fort Rucker Community Garden
Size:  medium_20x20
City:  Fort Rucker
State:  Al
ZIP:  36362
---------------------------------------------------
Latitude:  33.611272
Longitude:  -117.66681
Map Pin Type:  friendPin
ID:  155
Name:  Marplace Garden
Size:  small_10x10
City:  Mission Viejo
State:  CA
ZIP:  92691
---------------------------------------------------
Latitude:  32.742892
Longitude:  -117.12774
Map Pin Type:  friendPin
ID:  156
Name:  greengarden
Size:  medium_20x20
City:  San Diego
State:  CA
ZIP:  92104
---------------------------------------------------
Latitude:  33.818165
Longitude:  -117.97304
Map Pin Type:  friendPin
ID:  157
Name:  No1garden
Size:  medium_20x20
City:  Anaheim
State:  CA
ZIP:  92804
---------------------------------------------------
Latitude:  38.594901
Longitude:  -90.2278
Map Pin Type:  friendPin
ID:  158
Name:  Pierreplace
Size:  small_10x10
City:  St Louis
State:  MO
ZIP:  63118
---------------------------------------------------
Latitude:  33.828766
Longitude:  -118.31367
Map Pin Type:  friendPin
ID:  159
Name:  Holnes Garden
Size:  planter_box_etc
City:  Torrence
State:  CA
ZIP:  90501
---------------------------------------------------
Latitude:  33.720017
Longitude:  -118.04614
Map Pin Type:  friendPin
ID:  160
Name:  green garden
Size:  planter_box_etc
City:  Huntington  Beach
State:  CA
ZIP:  92649
---------------------------------------------------
Latitude:  33.978965
Longitude:  -117.33646
Map Pin Type:  friendPin
ID:  161
Name:  nutra Garden
Size:  medium_20x20
City:  Riverside
State:  CA
ZIP:  92507
---------------------------------------------------
Latitude:  41.54338
Longitude:  -88.11963
Map Pin Type:  friendPin
ID:  162
Name:  Pelagia Gardens
Size:  large_over_20x20
City:  Joliet
State:  IL
ZIP:  60435
---------------------------------------------------
Latitude:  40.995384
Longitude:  -72.18564
Map Pin Type:  familyPin
ID:  163
Name:  E. Hampton Garden of Paradise
Size:  small_10x10
City:  East Hampton
State:  Ne
ZIP:  11937
---------------------------------------------------
Latitude:  33.90213
Longitude:  -118.00966
Map Pin Type:  familyPin
ID:  164
Name:  Spring Follies
Size:  planter_box_etc
City:  La Mirada
State:  CA
ZIP:  90638
---------------------------------------------------
Latitude:  49.261226
Longitude:  -123.1139268
Map Pin Type:  friendPin
ID:  165
Name:  Rob's veggies
Size:  small_10x10
City:  Van Couver
State:  BC
ZIP:  V534P
---------------------------------------------------
Latitude:  42.586677
Longitude:  -83.22956
Map Pin Type:  familyPin
ID:  166
Name:  Pansophy Roots
Size:  medium_20x20
City:  Bloomfield Hills
State:  Mi
ZIP:  48304
---------------------------------------------------
Latitude:  41.260566
Longitude:  -95.9362
Map Pin Type:  friendPin
ID:  167
Name:  Gals Garden
Size:  planter_box_etc
City:  Omaha
State:  NE
ZIP:  68102
---------------------------------------------------
Latitude:  30.246309
Longitude:  -97.76087
Map Pin Type:  friendPin
ID:  168
Name:  CMD Garden
Size:  large_over_20x20
City:  Austin
State:  TX
ZIP:  78704
---------------------------------------------------
Latitude:  30.403286
Longitude:  -88.77565
Map Pin Type:  friendPin
ID:  169
Name:  KK's Garden
Size:  planter_box_etc
City:  Ocean Springs
State:  MS
ZIP:  39564
---------------------------------------------------
Latitude:  37.9837155
Longitude:  23.7293096999999
Map Pin Type:  friendPin
ID:  170
Name:  Spiros Garden
Size:  medium_20x20
City:  Athens
State:  Gr
ZIP:  
---------------------------------------------------
Latitude:  38.934866
Longitude:  -77.06039
Map Pin Type:  friendPin
ID:  171
Name:  Chapman Garden
Size:  small_10x10
City:  Washington
State:  DC
ZIP:  20008
---------------------------------------------------
Latitude:  33.762117
Longitude:  -117.81828
Map Pin Type:  friendPin
ID:  172
Name:  Grace's Garden
Size:  large_over_20x20
City:  North Tustin
State:  CA
ZIP:  92705
---------------------------------------------------
Latitude:  45.707153
Longitude:  -110.9878
Map Pin Type:  friendPin
ID:  173
Name:  Renee's Garden
Size:  small_10x10
City:  Boremon
State:  MT
ZIP:  59715
---------------------------------------------------
Latitude:  42.056391
Longitude:  -87.69684
Map Pin Type:  friendPin
ID:  174
Name:  The Dupuis Garden
Size:  small_10x10
City:  Evanston
State:  IL
ZIP:  60201
---------------------------------------------------
Latitude:  40.748001
Longitude:  -74.04943
Map Pin Type:  friendPin
ID:  175
Name:  LG Gardem
Size:  planter_box_etc
City:  Jersey City
State:  NJ
ZIP:  07307
---------------------------------------------------
Latitude:  43.750744
Longitude:  -114.5198
Map Pin Type:  friendPin
ID:  176
Name:  Sharons Space
Size:  small_10x10
City:  Ketchum
State:  ID
ZIP:  83340
---------------------------------------------------
Latitude:  32.662563
Longitude:  -116.95413
Map Pin Type:  friendPin
ID:  177
Name:  My Green Garden
Size:  small_10x10
City:  C Vista
State:  CA
ZIP:  91914
---------------------------------------------------
Latitude:  33.803565
Longitude:  -117.99596
Map Pin Type:  friendPin
ID:  178
Name:  Science Garden
Size:  large_over_20x20
City:  Stanton
State:  OH
ZIP:  90680
---------------------------------------------------
Latitude:  33.792687
Longitude:  -117.79975
Map Pin Type:  friendPin
ID:  179
Name:  B's Garden
Size:  farm
City:  Orange
State:  CA
ZIP:  92869
---------------------------------------------------
Latitude:  37.98779
Longitude:  -122.59962
Map Pin Type:  friendPin
ID:  180
Name:  Costa Garden
Size:  medium_20x20
City:  Fairfax
State:  CA
ZIP:  94930
---------------------------------------------------
Latitude:  37.98779
Longitude:  -122.59962
Map Pin Type:  friendPin
ID:  181
Name:  MVD Garden
Size:  small_10x10
City:  Palos Verdes
State:  CA
ZIP:  94930
---------------------------------------------------
Latitude:  33.784099
Longitude:  -118.38752
Map Pin Type:  friendPin
ID:  182
Name:  Matts Garden
Size:  large_over_20x20
City:  Palos Verdes
State:  CA
ZIP:  90274
---------------------------------------------------
Latitude:  34.456957
Longitude:  -119.25307
Map Pin Type:  friendPin
ID:  183
Name:  Rotello acre
Size:  small_10x10
City:  Ojau
State:  Ca
ZIP:  93023
---------------------------------------------------
Latitude:  33.828366
Longitude:  -118.18235
Map Pin Type:  friendPin
ID:  184
Name:  Pams Garden
Size:  small_10x10
City:  Long Beach
State:  CA
ZIP:  90807
---------------------------------------------------
Latitude:  34.143497
Longitude:  -114.62411
Map Pin Type:  friendPin
ID:  185
Name:  Ron's Garden
Size:  small_10x10
City:  Palm Spring
State:  FL
ZIP:  92280
---------------------------------------------------
Latitude:  34.111208
Longitude:  -118.28842
Map Pin Type:  friendPin
ID:  186
Name:  My Little Garden
Size:  small_10x10
City:  Los Feliz
State:  CA
ZIP:  90027
---------------------------------------------------
Latitude:  41.822681
Longitude:  -87.84753
Map Pin Type:  friendPin
ID:  187
Name:  Garden on the edge
Size:  medium_20x20
City:  Brookfield
State:  IL
ZIP:  60513
---------------------------------------------------
Latitude:  33.750795
Longitude:  -116.72562
Map Pin Type:  familyPin
ID:  188
Name:  Idyllwild Community Garden
Size:  large_over_20x20
City:  Idyllwild
State:  Ca
ZIP:  92549
---------------------------------------------------
Latitude:  41.214824
Longitude:  -92.43864
Map Pin Type:  friendPin
ID:  189
Name:  TLO
Size:  planter_box_etc
City:  Oakaloosa
State:  IA
ZIP:  52561
---------------------------------------------------
Latitude:  33.828766
Longitude:  -118.31367
Map Pin Type:  friendPin
ID:  190
Name:  Thaker Garden
Size:  planter_box_etc
City:  Torrence
State:  CA
ZIP:  90501
---------------------------------------------------
Latitude:  31.261716
Longitude:  -92.42469
Map Pin Type:  friendPin
ID:  191
Name:  my little garden
Size:  small_10x10
City:  Alexandria
State:  LA
ZIP:  71302
---------------------------------------------------
Latitude:  30.326374
Longitude:  -97.771258
Map Pin Type:  friendPin
ID:  192
Name:  Mayes Place
Size:  small_10x10
City:  Austin
State:  TX
ZIP:  78709
---------------------------------------------------
Latitude:  34.03056
Longitude:  -118.39804
Map Pin Type:  friendPin
ID:  193
Name:  T's Garden
Size:  planter_box_etc
City:  LA
State:  CA
ZIP:  90034
---------------------------------------------------
Latitude:  39.033312
Longitude:  -120.82172
Map Pin Type:  friendPin
ID:  194
Name:  MJs Garden
Size:  planter_box_etc
City:  Forest Hill
State:  CA
ZIP:  95631
---------------------------------------------------
Latitude:  33.675893
Longitude:  -117.34946
Map Pin Type:  friendPin
ID:  195
Name:  Verboom Garden
Size:  medium_20x20
City:  Lake Elsinore
State:  CA
ZIP:  92530
---------------------------------------------------
Latitude:  29.83399
Longitude:  -95.434241
Map Pin Type:  friendPin
ID:  196
Name:  Natures Garden
Size:  small_10x10
City:  Houston
State:  TX
ZIP:  77282
---------------------------------------------------
Latitude:  40.826201
Longitude:  -73.94879
Map Pin Type:  familyPin
ID:  197
Name:  ST. Luke's Community Garden
Size:  medium_20x20
City:  Harlem
State:  Ne
ZIP:  10031
---------------------------------------------------
Latitude:  37.408511
Longitude:  -94.70414
Map Pin Type:  friendPin
ID:  198
Name:  Little Garden On Campus
Size:  planter_box_etc
City:  Pittsburg
State:  KS
ZIP:  66762
---------------------------------------------------
Latitude:  39.679437
Longitude:  -104.96473
Map Pin Type:  familyPin
ID:  199
Name:  Campagna's Home Garden
Size:  large_over_20x20
City:  denver
State:  Co
ZIP:  80210
---------------------------------------------------
Latitude:  -5.1333333
Longitude:  119.4166667
Map Pin Type:  familyPin
ID:  200
Name:  Sudiang Garden
Size:  farm
City:  MAKASSAR
State:  SU
ZIP:  
---------------------------------------------------
Latitude:  34.104555
Longitude:  -117.58734
Map Pin Type:  familyPin
ID:  201
Name:  FAMILY TABLE
Size:  small_10x10
City:  RANCHO CUAMONGA
State:  CA
ZIP:  91730
---------------------------------------------------
Latitude:  34.066009
Longitude:  -118.38271
Map Pin Type:  familyPin
ID:  202
Name:  Besherit Garden
Size:  planter_box_etc
City:  Beverly Hills
State:  CA
ZIP:  90211
---------------------------------------------------
Latitude:  38.549256
Longitude:  -121.73655
Map Pin Type:  familyPin
ID:  203
Name:  Fresh SPIN Farms
Size:  farm
City:  Davis
State:  Ca
ZIP:  95616
---------------------------------------------------
Latitude:  47.733852
Longitude:  -122.34461
Map Pin Type:  familyPin
ID:  204
Name:  Seattle Urban Farm Co
Size:  large_over_20x20
City:  Seattle
State:  WA
ZIP:  98133
---------------------------------------------------
Latitude:  47.66747
Longitude:  -122.37468
Map Pin Type:  friendPin
ID:  205
Name:  Bastille Rooftop Garden by Seattle Urban Farm Co
Size:  large_over_20x20
City:  Seattle
State:  WA
ZIP:  98107
---------------------------------------------------
Latitude:  42.104127
Longitude:  -87.75016
Map Pin Type:  familyPin
ID:  206
Name:  Canteloupeh Farm
Size:  large_over_20x20
City:  Winnetka
State:  Il
ZIP:  60093
---------------------------------------------------
Latitude:  40.707904
Longitude:  -74.01342
Map Pin Type:  friendPin
ID:  207
Name:  Murray Hill Garden
Size:  planter_box_etc
City:  New York
State:  NY
ZIP:  10006
---------------------------------------------------
Latitude:  40.780751
Longitude:  -73.977182
Map Pin Type:  friendPin
ID:  208
Name:  Murray Hill Garden
Size:  planter_box_etc
City:  New York
State:  NY
ZIP:  10261
---------------------------------------------------
Latitude:  42.365936
Longitude:  -83.36513
Map Pin Type:  friendPin
ID:  209
Name:  Lawnless Acres
Size:  large_over_20x20
City:  Livonia
State:  Mi
ZIP:  48150
---------------------------------------------------
Latitude:  38.672127
Longitude:  -121.15783
Map Pin Type:  friendPin
ID:  210
Name:  My Little Folsom Farm
Size:  large_over_20x20
City:  Folsom
State:  CA
ZIP:  95630
---------------------------------------------------
Latitude:  55.724508
Longitude:  12.354765
Map Pin Type:  familyPin
ID:  211
Name:  Casa Loco
Size:  small_10x10
City:  Ballerup
State:  -
ZIP:  2750
---------------------------------------------------
Latitude:  38.072402
Longitude:  -78.50149
Map Pin Type:  familyPin
ID:  212
Name:  LUNCHBOX
Size:  large_over_20x20
City:  Charlottesville
State:  VA
ZIP:  22901
---------------------------------------------------
Latitude:  38.907711
Longitude:  -77.01732
Map Pin Type:  familyPin
ID:  213
Name:  Mer and Dave's Garden
Size:  small_10x10
City:  Washington
State:  DC
ZIP:  20001
---------------------------------------------------
Latitude:  33.498076
Longitude:  -111.98603
Map Pin Type:  familyPin
ID:  214
Name:  The Urban Flock
Size:  small_10x10
City:  Phoenix
State:  AZ
ZIP:  85018
---------------------------------------------------
Latitude:  45.019315
Longitude:  -93.24304
Map Pin Type:  familyPin
ID:  215
Name:  Buchanan Street Farms
Size:  large_over_20x20
City:  Minneapolis
State:  MN
ZIP:  55418
---------------------------------------------------
Latitude:  -37.814107
Longitude:  144.96328
Map Pin Type:  friendPin
ID:  216
Name:  jim
Size:  medium_20x20
City:  Melbourne
State:  Vi
ZIP:  3031
---------------------------------------------------
Latitude:  35.814572
Longitude:  -78.58348
Map Pin Type:  familyPin
ID:  217
Name:  Fallen Pines Farm
Size:  large_over_20x20
City:  Raleigh
State:  NC
ZIP:  27604
---------------------------------------------------
Latitude:  42.499335
Longitude:  -83.22829
Map Pin Type:  familyPin
ID:  218
Name:  Urban Farming / Fox 2 News Garden
Size:  medium_20x20
City:  Southfield
State:  Mi
ZIP:  48076
---------------------------------------------------
Latitude:  36.12301
Longitude:  -80.64557
Map Pin Type:  familyPin
ID:  219
Name:  Pettit
Size:  planter_box_etc
City:  Yadkinville
State:  NC
ZIP:  27055
---------------------------------------------------
Latitude:  51.924216
Longitude:  4.48177599999997
Map Pin Type:  familyPin
ID:  220
Name:  COOLzaad Kralingen
Size:  large_over_20x20
City:  Rotterdam
State:  Zu
ZIP:  
---------------------------------------------------
Latitude:  37.7840208
Longitude:  -79.4428157
Map Pin Type:  familyPin
ID:  221
Name:  WaterWitch Grounds &amp;amp; Grange
Size:  large_over_20x20
City:  Lexington
State:  VA
ZIP:  24450
---------------------------------------------------
Latitude:  28.619445
Longitude:  -81.42695
Map Pin Type:  friendPin
ID:  222
Name:  Lockhart Acres Farm
Size:  farm
City:  Orlando
State:  Fl
ZIP:  32810
---------------------------------------------------
Latitude:  35.097719
Longitude:  -114.59734
Map Pin Type:  familyPin
ID:  223
Name:  Spade Organics
Size:  large_over_20x20
City:  Bullhead City
State:  ar
ZIP:  86442
---------------------------------------------------
Latitude:  42.294987
Longitude:  -83.25049
Map Pin Type:  familyPin
ID:  224
Name:  Draper garden
Size:  medium_20x20
City:  Dearborn
State:  Mi
ZIP:  48124
---------------------------------------------------
Latitude:  42.499335
Longitude:  -83.22829
Map Pin Type:  friendPin
ID:  225
Name:  Quantum
Size:  planter_box_etc
City:  Southfield
State:  Mi
ZIP:  48076
---------------------------------------------------
Latitude:  42.410487
Longitude:  -82.94348
Map Pin Type:  friendPin
ID:  226
Name:  serenity
Size:  medium_20x20
City:  detroit
State:  mi
ZIP:  48224
---------------------------------------------------
Latitude:  42.556943
Longitude:  -83.11506
Map Pin Type:  friendPin
ID:  227
Name:  Tellys place
Size:  farm
City:  troy
State:  mi
ZIP:  48083
---------------------------------------------------
Latitude:  14.6220809
Longitude:  121.0438201
Map Pin Type:  friendPin
ID:  228
Name:  Lightlife garden
Size:  planter_box_etc
City:  vancouver
State:  MA
ZIP:  61660
---------------------------------------------------
Latitude:  42.524134
Longitude:  -83.25454
Map Pin Type:  friendPin
ID:  229
Name:  my favorie place
Size:  small_10x10
City:  Franklin
State:  MI
ZIP:  48025
---------------------------------------------------
Latitude:  42.497736
Longitude:  -82.89979
Map Pin Type:  friendPin
ID:  230
Name:  Remy Out
Size:  large_over_20x20
City:  St Clair Shores
State:  MI
ZIP:  48081
---------------------------------------------------
Latitude:  42.670932
Longitude:  -82.77754
Map Pin Type:  friendPin
ID:  231
Name:  peaceful
Size:  small_10x10
City:  Chesterfield
State:  MI
ZIP:  48047
---------------------------------------------------
Latitude:  42.499335
Longitude:  -83.22829
Map Pin Type:  familyPin
ID:  232
Name:  Paradise
Size:  planter_box_etc
City:  Southfield
State:  Mi
ZIP:  48076
---------------------------------------------------
Latitude:  29.404267
Longitude:  -100.88116
Map Pin Type:  friendPin
ID:  233
Name:  Mini Paradise
Size:  small_10x10
City:  Del Rio
State:  Te
ZIP:  78840
---------------------------------------------------
Latitude:  33.794055
Longitude:  -84.38525
Map Pin Type:  friendPin
ID:  234
Name:  Patio
Size:  small_10x10
City:  Atlanta
State:  GA
ZIP:  30309
---------------------------------------------------
Latitude:  60.816218
Longitude:  -115.7853653
Map Pin Type:  friendPin
ID:  235
Name:  Hay River Community Garden
Size:  farm
City:  Hay River
State:  NT
ZIP:  X0E 0
---------------------------------------------------
Latitude:  41.589701
Longitude:  -71.454
Map Pin Type:  friendPin
ID:  236
Name:  Earthen Bliss
Size:  small_10x10
City:  North Kingstown
State:  RI
ZIP:  02852
---------------------------------------------------
Latitude:  42.465142
Longitude:  -83.39853
Map Pin Type:  familyPin
ID:  237
Name:  Missing Acres Farm
Size:  farm
City:  Farmington Hills
State:  MI
ZIP:  48335
---------------------------------------------------
Latitude:  42.410487
Longitude:  -82.94348
Map Pin Type:  familyPin
ID:  238
Name:  my lil piece of heaven
Size:  planter_box_etc
City:  Detroit
State:  MI
ZIP:  48224
---------------------------------------------------
Latitude:  42.379436
Longitude:  -83.29105
Map Pin Type:  familyPin
ID:  239
Name:  haygood urban gardens
Size:  medium_20x20
City:  redford
State:  mi
ZIP:  48239
---------------------------------------------------
Latitude:  40.72596
Longitude:  -73.99834
Map Pin Type:  friendPin
ID:  240
Name:  Doodle
Size:  planter_box_etc
City:  New York
State:  Ne
ZIP:  10012
---------------------------------------------------
Latitude:  19.947774
Longitude:  -155.78634
Map Pin Type:  familyPin
ID:  241
Name:  Banana Grove
Size:  medium_20x20
City:  Waikoloa
State:  HI
ZIP:  96738
---------------------------------------------------
Latitude:  36.099044
Longitude:  -95.96615
Map Pin Type:  familyPin
ID:  242
Name:  Barbour Urban Farm
Size:  large_over_20x20
City:  tulsa
State:  Ok
ZIP:  74105
---------------------------------------------------
Latitude:  40.890964
Longitude:  -74.01115
Map Pin Type:  friendPin
ID:  243
Name:  The Garden of Millions
Size:  small_10x10
City:  Tea Neck
State:  Ne
ZIP:  07666
---------------------------------------------------
Latitude:  47.564437
Longitude:  -122.71293
Map Pin Type:  friendPin
ID:  244
Name:  Malone garden
Size:  medium_20x20
City:  Bremerton
State:  WA
ZIP:  98312
---------------------------------------------------
Latitude:  42.239933
Longitude:  -83.150823
Map Pin Type:  familyPin
ID:  245
Name:  Baker's acre
Size:  small_10x10
City:  Pinckney
State:  MI
ZIP:  48269
---------------------------------------------------
Latitude:  41.809387
Longitude:  -88.32931
Map Pin Type:  familyPin
ID:  246
Name:  Dahl Haus Garden
Size:  planter_box_etc
City:  North Aurura
State:  IL
ZIP:  60542
---------------------------------------------------
Latitude:  33.503742
Longitude:  -112.03235
Map Pin Type:  friendPin
ID:  247
Name:  City Center Farms - Phoenix Biltmore
Size:  large_over_20x20
City:  Phoenix
State:  AZ
ZIP:  85016
---------------------------------------------------
Latitude:  42.460986
Longitude:  -83.13398
Map Pin Type:  familyPin
ID:  248
Name:  Real to Real Garden
Size:  planter_box_etc
City:  Ferndale
State:  Mi
ZIP:  48220
---------------------------------------------------
Latitude:  34.0900091
Longitude:  -118.3617443
Map Pin Type:  friendPin
ID:  249
Name:  ORANGE TREE
Size:  planter_box_etc
City:  West Hollywood
State:  CA
ZIP:  90269
---------------------------------------------------
Latitude:  34.090975
Longitude:  -118.3813
Map Pin Type:  friendPin
ID:  250
Name:  The Orange Tree
Size:  planter_box_etc
City:  West Hollywood
State:  CA
ZIP:  90069
---------------------------------------------------
Latitude:  33.38779
Longitude:  -84.82536
Map Pin Type:  familyPin
ID:  251
Name:  Papa's garden
Size:  medium_20x20
City:  Newnan
State:  GA
ZIP:  30263
---------------------------------------------------
Latitude:  42.425836
Longitude:  -82.90003
Map Pin Type:  familyPin
ID:  252
Name:  Candydees Garden
Size:  small_10x10
City:  Grosse Point
State:  Mi
ZIP:  48236
---------------------------------------------------
Latitude:  44.911564
Longitude:  -93.31947
Map Pin Type:  familyPin
ID:  253
Name:  Mary's Garden
Size:  small_10x10
City:  Minneapolis MN
State:  MN
ZIP:  55410
---------------------------------------------------
Latitude:  33.923463
Longitude:  -117.89559
Map Pin Type:  familyPin
ID:  254
Name:  Gavin's Garden
Size:  medium_20x20
City:  Brea
State:  CA
ZIP:  92821
---------------------------------------------------
Latitude:  52.2296756
Longitude:  21.0122287
Map Pin Type:  familyPin
ID:  255
Name:  Kasia's Tomato Farm
Size:  planter_box_etc
City:  Warsaw
State:  Ma
ZIP:  
---------------------------------------------------
Latitude:  39.958564
Longitude:  -82.92824
Map Pin Type:  familyPin
ID:  256
Name:  harachis and son garden
Size:  medium_20x20
City:  bexley
State:  oh
ZIP:  43209
---------------------------------------------------
Latitude:  52.2296756
Longitude:  21.0122287
Map Pin Type:  familyPin
ID:  257
Name:  Mini Farm
Size:  planter_box_etc
City:  Warsaw
State:  ma
ZIP:  
---------------------------------------------------
Latitude:  41.881632
Longitude:  -71.35583
Map Pin Type:  familyPin
ID:  258
Name:  point13acres
Size:  large_over_20x20
City:  Pawtucket
State:  RI
ZIP:  02861
---------------------------------------------------
Latitude:  34.050505
Longitude:  -118.53374
Map Pin Type:  familyPin
ID:  259
Name:  Gracie The Garden
Size:  planter_box_etc
City:  Pacific Palisades
State:  CA
ZIP:  90272
---------------------------------------------------
Latitude:  34.063209
Longitude:  -118.43643
Map Pin Type:  friendPin
ID:  260
Name:  Betsy's Place
Size:  planter_box_etc
City:  Los Angeles
State:  CA
ZIP:  90024
---------------------------------------------------
Latitude:  34.067409
Longitude:  -118.47528
Map Pin Type:  familyPin
ID:  261
Name:  Meg's Garden
Size:  medium_20x20
City:  Los Angeles
State:  CA
ZIP:  90049
---------------------------------------------------
Latitude:  34.050505
Longitude:  -118.53374
Map Pin Type:  familyPin
ID:  262
Name:  Sue's Garden
Size:  small_10x10
City:  Pacific Palisades
State:  CA
ZIP:  90272
---------------------------------------------------
Latitude:  34.101007
Longitude:  -118.45077
Map Pin Type:  familyPin
ID:  263
Name:  Ranjit's Garden
Size:  medium_20x20
City:  Los Angeles
State:  CA
ZIP:  90077
---------------------------------------------------
Latitude:  34.050505
Longitude:  -118.53374
Map Pin Type:  familyPin
ID:  264
Name:  Paradise
Size:  small_10x10
City:  Pacific Palisades
State:  CA
ZIP:  90272
---------------------------------------------------
Latitude:  34.050505
Longitude:  -118.53374
Map Pin Type:  familyPin
ID:  265
Name:  Villa Monaco
Size:  large_over_20x20
City:  Pacific Palisades
State:  CA
ZIP:  90272
---------------------------------------------------
Latitude:  39.761211
Longitude:  -86.52344
Map Pin Type:  familyPin
ID:  266
Name:  Hornick greens
Size:  small_10x10
City:  Danville
State:  IN
ZIP:  46122
---------------------------------------------------
Latitude:  33.801767
Longitude:  -118.1858
Map Pin Type:  familyPin
ID:  267
Name:  more plants than I have stairs
Size:  planter_box_etc
City:  long beach
State:  90
ZIP:  90806
---------------------------------------------------
Latitude:  34.307877
Longitude:  -118.42904
Map Pin Type:  familyPin
ID:  268
Name:  Welcome to my garden
Size:  small_10x10
City:  Sylmar
State:  CA
ZIP:  91342
---------------------------------------------------
Latitude:  42.458502
Longitude:  -83.3464
Map Pin Type:  familyPin
ID:  269
Name:  Mark King Garden
Size:  small_10x10
City:  Farmington Hills
State:  Mi
ZIP:  48336
---------------------------------------------------
Latitude:  34.12716
Longitude:  -117.20073
Map Pin Type:  friendPin
ID:  270
Name:  Blessings Garden
Size:  large_over_20x20
City:  Highland
State:  Ca
ZIP:  92346
---------------------------------------------------
Latitude:  39.843304
Longitude:  -105.11896
Map Pin Type:  familyPin
ID:  271
Name:  Rose Roots
Size:  farm
City:  Arvada
State:  Co
ZIP:  80005
---------------------------------------------------
Latitude:  41.545089
Longitude:  -93.61904
Map Pin Type:  familyPin
ID:  272
Name:  Sarah's Garden
Size:  small_10x10
City:  Des Moines
State:  Io
ZIP:  50315
---------------------------------------------------
Latitude:  41.87355
Longitude:  -87.7885
Map Pin Type:  familyPin
ID:  273
Name:  Vertical Farm Garage Program
Size:  small_10x10
City:  Oak Park
State:  IL
ZIP:  60304
---------------------------------------------------
Latitude:  32.213291
Longitude:  -110.82559
Map Pin Type:  familyPin
ID:  274
Name:  Brown's Bells
Size:  planter_box_etc
City:  Tucson
State:  Ar
ZIP:  85710
---------------------------------------------------
Latitude:  33.427078
Longitude:  -117.61401
Map Pin Type:  familyPin
ID:  275
Name:  Growzay's Aquaponics
Size:  small_10x10
City:  San Clemente
State:  CA
ZIP:  92672
---------------------------------------------------
Latitude:  42.132707
Longitude:  -80.08452
Map Pin Type:  friendPin
ID:  276
Name:  Commodore Patch
Size:  medium_20x20
City:  Erie
State:  Pe
ZIP:  16507
---------------------------------------------------
Latitude:  42.421936
Longitude:  -83.09981
Map Pin Type:  familyPin
ID:  277
Name:  J B urban community garden
Size:  large_over_20x20
City:  Highland Park
State:  MI
ZIP:  48203
---------------------------------------------------
Latitude:  42.465886
Longitude:  -83.056
Map Pin Type:  familyPin
ID:  278
Name:  Sharing Earth's Bounty
Size:  medium_20x20
City:  Warren
State:  MI
ZIP:  48091
---------------------------------------------------
Latitude:  33.853853
Longitude:  -84.22036
Map Pin Type:  friendPin
ID:  279
Name:  Amy's Back Forty
Size:  medium_20x20
City:  Atlanta
State:  GA
ZIP:  30084
---------------------------------------------------
Latitude:  33.786594
Longitude:  -118.298662
Map Pin Type:  familyPin
ID:  280
Name:  Harvest Garden
Size:  small_10x10
City:  Lakewood
State:  CA
ZIP:  90711
---------------------------------------------------
Latitude:  44.999165
Longitude:  -93.29823
Map Pin Type:  familyPin
ID:  281
Name:  Karamu Gardens
Size:  large_over_20x20
City:  Minneapolis
State:  MN
ZIP:  55411
---------------------------------------------------
Latitude:  43.653226
Longitude:  -79.3831843
Map Pin Type:  familyPin
ID:  282
Name:  elm grove
Size:  medium_20x20
City:  Toronto
State:  On
ZIP:  M6K 2
---------------------------------------------------
Latitude:  38.152068
Longitude:  -122.25074
Map Pin Type:  familyPin
ID:  283
Name:  Loma Vista Farm
Size:  farm
City:  Vallejo
State:  CA
ZIP:  94589
---------------------------------------------------
Latitude:  42.365337
Longitude:  -83.14254
Map Pin Type:  familyPin
ID:  284
Name:  julian st communiti garden
Size:  large_over_20x20
City:  detroit
State:  mi
ZIP:  48204
---------------------------------------------------
Latitude:  42.482585
Longitude:  -83.16812
Map Pin Type:  friendPin
ID:  285
Name:  ??????
Size:  small_10x10
City:  huntington Woods
State:  mi
ZIP:  48070
---------------------------------------------------
Latitude:  42.927801
Longitude:  -85.54582
Map Pin Type:  familyPin
ID:  286
Name:  Water Wheel Farms
Size:  large_over_20x20
City:  Grand Rapids
State:  MI
ZIP:  49546
---------------------------------------------------
Latitude:  36.051155
Longitude:  -78.857651
Map Pin Type:  friendPin
ID:  287
Name:  Songbird
Size:  planter_box_etc
City:  Durham
State:  NC
ZIP:  27710
---------------------------------------------------
Latitude:  34.107559
Longitude:  -118.22663
Map Pin Type:  friendPin
ID:  288
Name:  domestickat
Size:  planter_box_etc
City:  Los Angeles
State:  Ca
ZIP:  90065
---------------------------------------------------
Latitude:  34.200104
Longitude:  -118.54099
Map Pin Type:  friendPin
ID:  289
Name:  Victory.
Size:  medium_20x20
City:  Reseda
State:  Ca
ZIP:  91335
---------------------------------------------------
Latitude:  52.519171
Longitude:  13.4060912
Map Pin Type:  familyPin
ID:  290
Name:  Hofgarten
Size:  large_over_20x20
City:  Berlin
State:  Be
ZIP:  10247
---------------------------------------------------
Latitude:  35.377069
Longitude:  -77.92463
Map Pin Type:  familyPin
ID:  291
Name:  Smith Family Produce
Size:  large_over_20x20
City:  Goldsboro
State:  NC
ZIP:  27534
---------------------------------------------------
Latitude:  38.598185
Longitude:  -76.90381
Map Pin Type:  friendPin
ID:  292
Name:  Whimsy
Size:  large_over_20x20
City:  Waldorf
State:  Ma
ZIP:  20602
---------------------------------------------------
Latitude:  38.058477
Longitude:  -84.46109
Map Pin Type:  familyPin
ID:  293
Name:  Urban Paradise
Size:  large_over_20x20
City:  Lexington
State:  Ke
ZIP:  40505
---------------------------------------------------
Latitude:  26.094665
Longitude:  -80.17987
Map Pin Type:  familyPin
ID:  294
Name:  JUDY'S ORGANIC GROOVE
Size:  small_10x10
City:  FT LAUDERDALE
State:  FL
ZIP:  33312
---------------------------------------------------
Latitude:  42.375787
Longitude:  -83.10849
Map Pin Type:  friendPin
ID:  295
Name:  Carter
Size:  planter_box_etc
City:  Detroit
State:  Mi
ZIP:  48206
---------------------------------------------------
Latitude:  42.459022
Longitude:  -83.09819
Map Pin Type:  friendPin
ID:  296
Name:  Akasha's Alchemy
Size:  small_10x10
City:  Hazel Park
State:  MI
ZIP:  48030
---------------------------------------------------
Latitude:  42.595233
Longitude:  -83.39974
Map Pin Type:  familyPin
ID:  297
Name:  Old Orchard Trail
Size:  planter_box_etc
City:  Orchard Lake
State:  MI
ZIP:  48324
---------------------------------------------------
Latitude:  33.816217
Longitude:  -118.21495
Map Pin Type:  familyPin
ID:  298
Name:  Lil Anthony's Garden
Size:  large_over_20x20
City:  Long Beach
State:  Ca
ZIP:  90810
---------------------------------------------------
Latitude:  34.009276
Longitude:  -118.47286
Map Pin Type:  familyPin
ID:  299
Name:  Sandy's Feast
Size:  planter_box_etc
City:  Santa Monica
State:  CA
ZIP:  90405
---------------------------------------------------
Latitude:  34.009276
Longitude:  -118.47286
Map Pin Type:  friendPin
ID:  300
Name:  Todd's Bounty
Size:  planter_box_etc
City:  santa monica
State:  CA
ZIP:  90405
---------------------------------------------------
Latitude:  42.410687
Longitude:  -88.05462
Map Pin Type:  familyPin
ID:  301
Name:  The Rock Father Garden
Size:  medium_20x20
City:  Lake Villa
State:  IL
ZIP:  60046
---------------------------------------------------
Latitude:  40.670874
Longitude:  -73.89424
Map Pin Type:  friendPin
ID:  302
Name:  Temple of David Community Garden
Size:  medium_20x20
City:  Brooklyn
State:  NY
ZIP:  11207
---------------------------------------------------
Latitude:  41.54338
Longitude:  -88.11963
Map Pin Type:  familyPin
ID:  303
Name:  Kats
Size:  small_10x10
City:  Joliet
State:  Il
ZIP:  60435
---------------------------------------------------
Latitude:  34.122058
Longitude:  -118.3379
Map Pin Type:  familyPin
ID:  304
Name:  Jaq and Rod's Garden
Size:  planter_box_etc
City:  Los Angeles
State:  Ca
ZIP:  90068
---------------------------------------------------
Latitude:  42.499335
Longitude:  -83.22829
Map Pin Type:  familyPin
ID:  305
Name:  Gennesis
Size:  small_10x10
City:  River Rouge
State:  MI
ZIP:  48076
---------------------------------------------------
Latitude:  34.235055
Longitude:  -118.51766
Map Pin Type:  familyPin
ID:  306
Name:  Gaia Girls
Size:  large_over_20x20
City:  Northridge
State:  CA
ZIP:  91325
---------------------------------------------------
Latitude:  34.165706
Longitude:  -118.39986
Map Pin Type:  friendPin
ID:  307
Name:  Debra's Delight
Size:  small_10x10
City:  Valley Village
State:  CA
ZIP:  91607
---------------------------------------------------
Latitude:  40.436618
Longitude:  -80.07289
Map Pin Type:  familyPin
ID:  308
Name:  Gwen's Garden
Size:  medium_20x20
City:  Pittsburgh
State:  Pa
ZIP:  15205
---------------------------------------------------
Latitude:  40.034111
Longitude:  -75.17203
Map Pin Type:  friendPin
ID:  309
Name:  GrowingForGood:Philadelphia
Size:  large_over_20x20
City:  Philadelphia
State:  PA
ZIP:  19144
---------------------------------------------------
Latitude:  27.978316
Longitude:  -82.00841
Map Pin Type:  friendPin
ID:  310
Name:  kat's korner
Size:  large_over_20x20
City:  lakeland
State:  fl
ZIP:  33811
---------------------------------------------------
Latitude:  42.541268
Longitude:  -83.37551
Map Pin Type:  familyPin
ID:  311
Name:  Darling Doll House
Size:  planter_box_etc
City:  West Bloomfield
State:  Mi
ZIP:  48322
---------------------------------------------------
Latitude:  43.071201
Longitude:  -85.480856
Map Pin Type:  familyPin
ID:  312
Name:  Katies place
Size:  small_10x10
City:  Shelby Twnship
State:  MI
ZIP:  49317
---------------------------------------------------
Latitude:  42.425236
Longitude:  -83.24902
Map Pin Type:  familyPin
ID:  313
Name:  Connies Creations
Size:  planter_box_etc
City:  Detroit
State:  MI
ZIP:  48219
---------------------------------------------------
Latitude:  42.511293
Longitude:  -83.0597
Map Pin Type:  familyPin
ID:  314
Name:  Warren's Best
Size:  small_10x10
City:  Warren
State:  MI
ZIP:  48092
---------------------------------------------------
Latitude:  42.501385
Longitude:  -83.10474
Map Pin Type:  familyPin
ID:  315
Name:  a little help
Size:  planter_box_etc
City:  Madison  Heights
State:  MI
ZIP:  48071
---------------------------------------------------
Latitude:  42.421936
Longitude:  -83.09981
Map Pin Type:  familyPin
ID:  316
Name:  cumbarland garden
Size:  small_10x10
City:  Detroit
State:  MI
ZIP:  48203
---------------------------------------------------
Latitude:  42.421936
Longitude:  -83.09981
Map Pin Type:  familyPin
ID:  317
Name:  Jsglgt
Size:  large_over_20x20
City:  Detroit
State:  MI
ZIP:  48203
---------------------------------------------------
Latitude:  42.394586
Longitude:  -83.24422
Map Pin Type:  friendPin
ID:  318
Name:  Glo
Size:  medium_20x20
City:  Detroit
State:  MI
ZIP:  48223
---------------------------------------------------
Latitude:  42.459022
Longitude:  -83.09819
Map Pin Type:  familyPin
ID:  319
Name:  3
Size:  small_10x10
City:  Hazel Park
State:  MI
ZIP:  48030
---------------------------------------------------
Latitude:  42.410037
Longitude:  -83.05826
Map Pin Type:  familyPin
ID:  320
Name:  Edible
Size:  large_over_20x20
City:  detroit
State:  mi
ZIP:  48212
---------------------------------------------------
Latitude:  42.394586
Longitude:  -83.24422
Map Pin Type:  familyPin
ID:  321
Name:  The Joy Garden
Size:  small_10x10
City:  Detroit
State:  MI
ZIP:  48223
---------------------------------------------------
Latitude:  29.915355
Longitude:  -90.05335
Map Pin Type:  friendPin
ID:  322
Name:  The Gainey Garden
Size:  small_10x10
City:  Gretna
State:  LA
ZIP:  70053
---------------------------------------------------
Latitude:  34.254751
Longitude:  -118.42406
Map Pin Type:  familyPin
ID:  323
Name:  Paradise
Size:  small_10x10
City:  Pomoma
State:  CA
ZIP:  91331
---------------------------------------------------
Latitude:  34.07851
Longitude:  -118.26596
Map Pin Type:  familyPin
ID:  324
Name:  Pisa
Size:  medium_20x20
City:  Los Angeles
State:  CA
ZIP:  90026
---------------------------------------------------
Latitude:  34.12716
Longitude:  -117.20073
Map Pin Type:  familyPin
ID:  325
Name:  Edmund's Wonderland
Size:  medium_20x20
City:  San Bernadino
State:  CA
ZIP:  92346
---------------------------------------------------
Latitude:  34.07851
Longitude:  -118.26596
Map Pin Type:  familyPin
ID:  326
Name:  Luna
Size:  medium_20x20
City:  Los Angeles
State:  CA
ZIP:  90026
---------------------------------------------------
Latitude:  34.048411
Longitude:  -118.34015
Map Pin Type:  familyPin
ID:  327
Name:  Violet's Garden
Size:  large_over_20x20
City:  Los Angeles
State:  CA
ZIP:  90019
---------------------------------------------------
Latitude:  34.058911
Longitude:  -118.30848
Map Pin Type:  friendPin
ID:  328
Name:  Olic
Size:  planter_box_etc
City:  Los Angeles
State:  CA
ZIP:  90005
---------------------------------------------------
Latitude:  34.003213
Longitude:  -118.3078
Map Pin Type:  familyPin
ID:  329
Name:  M Garden
Size:  small_10x10
City:  Los Angeles
State:  CA
ZIP:  90062
---------------------------------------------------
Latitude:  34.07851
Longitude:  -118.26596
Map Pin Type:  familyPin
ID:  330
Name:  Gypsy Garden
Size:  planter_box_etc
City:  Los Angeles
State:  CA
ZIP:  90026
---------------------------------------------------
Latitude:  34.07851
Longitude:  -118.26596
Map Pin Type:  familyPin
ID:  331
Name:  Oxygen Alley
Size:  medium_20x20
City:  Los Angeles
State:  CA
ZIP:  90026
---------------------------------------------------
Latitude:  34.098908
Longitude:  -118.36241
Map Pin Type:  familyPin
ID:  332
Name:  Anita
Size:  large_over_20x20
City:  Los Angeles
State:  CA
ZIP:  90046
---------------------------------------------------
Latitude:  34.058911
Longitude:  -118.30848
Map Pin Type:  familyPin
ID:  333
Name:  The Happy Tomato
Size:  small_10x10
City:  Los Angeles
State:  CA
ZIP:  90005
---------------------------------------------------
Latitude:  34.168206
Longitude:  -118.37246
Map Pin Type:  familyPin
ID:  334
Name:  Bennette
Size:  small_10x10
City:  Studio City
State:  CA
ZIP:  91601
---------------------------------------------------
Latitude:  34.111208
Longitude:  -118.28842
Map Pin Type:  familyPin
ID:  335
Name:  Green Box
Size:  medium_20x20
City:  Los Angeles
State:  CA
ZIP:  90027
---------------------------------------------------
Latitude:  38.702651
Longitude:  -90.36109
Map Pin Type:  familyPin
ID:  336
Name:  Reppert Family Garden
Size:  medium_20x20
City:  St. Louis
State:  MO
ZIP:  63114
---------------------------------------------------
Latitude:  42.379019
Longitude:  -83.04483
Map Pin Type:  friendPin
ID:  337
Name:  brown&amp;amp;green
Size:  small_10x10
City:  detroit
State:  mi
ZIP:  48211
---------------------------------------------------
Latitude:  34.073759
Longitude:  -118.37376
Map Pin Type:  familyPin
ID:  338
Name:  My Garden
Size:  small_10x10
City:  Los Angeles
State:  CA
ZIP:  90048
---------------------------------------------------
Latitude:  34.090259
Longitude:  -118.29455
Map Pin Type:  familyPin
ID:  339
Name:  Eden
Size:  small_10x10
City:  Los Angeles
State:  CA
ZIP:  90029
---------------------------------------------------
Latitude:  34.098859
Longitude:  -118.32745
Map Pin Type:  familyPin
ID:  340
Name:  Judy Garden Garland
Size:  small_10x10
City:  Los Angeles
State:  CA
ZIP:  90028
---------------------------------------------------
Latitude:  34.089459
Longitude:  -118.3285
Map Pin Type:  friendPin
ID:  341
Name:  LB Garden
Size:  medium_20x20
City:  Los Angeles
State:  CA
ZIP:  90038
---------------------------------------------------
Latitude:  34.072959
Longitude:  -118.1462
Map Pin Type:  familyPin
ID:  342
Name:  Girls Giving Urban
Size:  small_10x10
City:  Los Angeles
State:  CA
ZIP:  91803
---------------------------------------------------
Latitude:  34.187044
Longitude:  -118.3812562
Map Pin Type:  friendPin
ID:  343
Name:  Edward's Garden
Size:  medium_20x20
City:  North Hollywood
State:  CA
ZIP:  91601
---------------------------------------------------
Latitude:  34.089459
Longitude:  -118.3285
Map Pin Type:  familyPin
ID:  344
Name:  Chloe's Garden Cash
Size:  small_10x10
City:  Los Angeles
State:  CA
ZIP:  90038
---------------------------------------------------
Latitude:  34.176505
Longitude:  -118.43308
Map Pin Type:  familyPin
ID:  345
Name:  Toni and Frank's Garden
Size:  small_10x10
City:  Sherman Oaks
State:  ca
ZIP:  91401
---------------------------------------------------
Latitude:  42.365337
Longitude:  -83.14254
Map Pin Type:  familyPin
ID:  346
Name:  Care N Share Community Garden
Size:  farm
City:  Detroit
State:  MI
ZIP:  48204
---------------------------------------------------
Latitude:  34.090259
Longitude:  -118.29455
Map Pin Type:  familyPin
ID:  347
Name:  Joti Garden
Size:  large_over_20x20
City:  Los Angeles
State:  CA
ZIP:  90029
---------------------------------------------------
Latitude:  34.254751
Longitude:  -118.42406
Map Pin Type:  familyPin
ID:  348
Name:  Natalie's Garden
Size:  small_10x10
City:  Pacoima
State:  CA
ZIP:  91331
---------------------------------------------------
Latitude:  33.997179
Longitude:  -118.40145
Map Pin Type:  familyPin
ID:  349
Name:  Mama Sud
Size:  small_10x10
City:  Culver City
State:  CA
ZIP:  90230
---------------------------------------------------
Latitude:  34.101007
Longitude:  -118.45077
Map Pin Type:  familyPin
ID:  350
Name:  Gardenville
Size:  medium_20x20
City:  Los Angeles
State:  CA
ZIP:  90077
---------------------------------------------------
Latitude:  34.101007
Longitude:  -118.45077
Map Pin Type:  familyPin
ID:  351
Name:  Bently Farm
Size:  medium_20x20
City:  Los Angeles
State:  CA
ZIP:  90077
---------------------------------------------------
Latitude:  33.955913
Longitude:  -118.35868
Map Pin Type:  familyPin
ID:  352
Name:  Marcito's
Size:  small_10x10
City:  Inglewood
State:  CA
ZIP:  90301
---------------------------------------------------
Latitude:  34.07851
Longitude:  -118.26596
Map Pin Type:  familyPin
ID:  353
Name:  Sampaquita
Size:  medium_20x20
City:  Los Angeles
State:  CA
ZIP:  90026
---------------------------------------------------
Latitude:  34.166567
Longitude:  -118.26994
Map Pin Type:  familyPin
ID:  354
Name:  Sue's Garden
Size:  small_10x10
City:  Glendale
State:  CA
ZIP:  91202
---------------------------------------------------
Latitude:  34.110425
Longitude:  -118.25832
Map Pin Type:  familyPin
ID:  355
Name:  Sam's
Size:  medium_20x20
City:  Los Angeles
State:  CA
ZIP:  90039
---------------------------------------------------
Latitude:  34.12716
Longitude:  -117.20073
Map Pin Type:  familyPin
ID:  356
Name:  Lucy's Land
Size:  small_10x10
City:  Highland
State:  CA
ZIP:  92346
---------------------------------------------------
Latitude:  34.07851
Longitude:  -118.26596
Map Pin Type:  familyPin
ID:  357
Name:  Veronica's Garden
Size:  small_10x10
City:  Los Angeles
State:  CA
ZIP:  90026
---------------------------------------------------
Latitude:  32.664307
Longitude:  -116.46513
Map Pin Type:  familyPin
ID:  358
Name:  Chopurian
Size:  small_10x10
City:  Glendale
State:  CA
ZIP:  91906
---------------------------------------------------
Latitude:  34.1161196
Longitude:  -118.1503488
Map Pin Type:  friendPin
ID:  359
Name:  Samaohi
Size:  planter_box_etc
City:  South Pasadena
State:  CA
ZIP:  91130
---------------------------------------------------
Latitude:  34.07036
Longitude:  -118.34926
Map Pin Type:  familyPin
ID:  360
Name:  Edith's Garden
Size:  medium_20x20
City:  Los Angeles
State:  CA
ZIP:  90036
---------------------------------------------------
Latitude:  34.07851
Longitude:  -118.26596
Map Pin Type:  familyPin
ID:  361
Name:  Liam Stone's
Size:  medium_20x20
City:  Los Angeles
State:  CA
ZIP:  90026
---------------------------------------------------
Latitude:  34.07851
Longitude:  -118.26596
Map Pin Type:  familyPin
ID:  362
Name:  Eric's Garden Oasis
Size:  medium_20x20
City:  Los Angeles
State:  CA
ZIP:  90026
---------------------------------------------------
Latitude:  34.098908
Longitude:  -118.36241
Map Pin Type:  familyPin
ID:  363
Name:  Beautiful Restful
Size:  medium_20x20
City:  Los Angeles
State:  CA
ZIP:  90046
---------------------------------------------------
Latitude:  32.897459
Longitude:  -96.5497
Map Pin Type:  friendPin
ID:  364
Name:  Brittany Acres
Size:  small_10x10
City:  rowlett
State:  tx
ZIP:  75088
---------------------------------------------------
Latitude:  42.4858692
Longitude:  -83.1052028
Map Pin Type:  familyPin
ID:  365
Name:  KulagasFamilygarden
Size:  small_10x10
City:  Madison Hgts
State:  MI
ZIP:  48011
---------------------------------------------------
Latitude:  42.499335
Longitude:  -83.22829
Map Pin Type:  familyPin
ID:  366
Name:  Work
Size:  small_10x10
City:  Harper Woods
State:  MI
ZIP:  48076
---------------------------------------------------
Latitude:  42.499335
Longitude:  -83.22829
Map Pin Type:  familyPin
ID:  367
Name:  Fairy Paradise
Size:  small_10x10
City:  Royal Oak
State:  MI
ZIP:  48076
---------------------------------------------------
Latitude:  42.427636
Longitude:  -83.19547
Map Pin Type:  familyPin
ID:  368
Name:  Midaz
Size:  planter_box_etc
City:  Detroit
State:  MI
ZIP:  48235
---------------------------------------------------
Latitude:  42.459022
Longitude:  -83.09819
Map Pin Type:  familyPin
ID:  369
Name:  Julie's Heart
Size:  large_over_20x20
City:  Hazel Park
State:  MI
ZIP:  48030
---------------------------------------------------
Latitude:  42.466086
Longitude:  -82.94641
Map Pin Type:  familyPin
ID:  370
Name:  Julies Heart
Size:  large_over_20x20
City:  Detrpot
State:  MI
ZIP:  48021
---------------------------------------------------
Latitude:  42.824095
Longitude:  -82.66522
Map Pin Type:  familyPin
ID:  371
Name:  Hilda's Garden
Size:  small_10x10
City:  Royal Oak
State:  MI
ZIP:  48061
---------------------------------------------------
Latitude:  42.465886
Longitude:  -83.056
Map Pin Type:  familyPin
ID:  372
Name:  Garden of Plenty
Size:  small_10x10
City:  Warren
State:  MI
ZIP:  48091
---------------------------------------------------
Latitude:  42.467235
Longitude:  -83.17952
Map Pin Type:  familyPin
ID:  373
Name:  Tasha's gardem
Size:  small_10x10
City:  Oak Park
State:  MI
ZIP:  48237
---------------------------------------------------
Latitude:  42.459022
Longitude:  -83.09819
Map Pin Type:  familyPin
ID:  374
Name:  The Yellow Garden
Size:  planter_box_etc
City:  Hazel Park
State:  MI
ZIP:  48030
---------------------------------------------------
Latitude:  42.501385
Longitude:  -83.10474
Map Pin Type:  familyPin
ID:  375
Name:  Ben Bee
Size:  small_10x10
City:  Madison Hgts
State:  MI
ZIP:  48071
---------------------------------------------------
Latitude:  42.375237
Longitude:  -83.07837
Map Pin Type:  friendPin
ID:  376
Name:  Northend Neighborhood Patrol
Size:  medium_20x20
City:  Detroit
State:  Mi
ZIP:  48202
---------------------------------------------------
Latitude:  34.07711
Longitude:  -118.30755
Map Pin Type:  familyPin
ID:  377
Name:  M Three
Size:  medium_20x20
City:  Los Angeles
State:  CA
ZIP:  90004
---------------------------------------------------
Latitude:  34.098859
Longitude:  -118.32745
Map Pin Type:  familyPin
ID:  378
Name:  Actor's Garden
Size:  small_10x10
City:  Los Angeles
State:  CA
ZIP:  90028
---------------------------------------------------
Latitude:  34.122058
Longitude:  -118.3379
Map Pin Type:  familyPin
ID:  379
Name:  Zinny's Frolic Room
Size:  planter_box_etc
City:  Los Angeles
State:  CA
ZIP:  90068
---------------------------------------------------
Latitude:  34.03457
Longitude:  -118.42843
Map Pin Type:  familyPin
ID:  380
Name:  A Miracle
Size:  small_10x10
City:  Los Angeles
State:  CA
ZIP:  90064
---------------------------------------------------
Latitude:  34.089459
Longitude:  -118.3285
Map Pin Type:  familyPin
ID:  381
Name:  Cardenas
Size:  medium_20x20
City:  Los Angeles
State:  CA
ZIP:  90038
---------------------------------------------------
Latitude:  34.098908
Longitude:  -118.36241
Map Pin Type:  familyPin
ID:  382
Name:  Eden
Size:  small_10x10
City:  Los Angeles
State:  CA
ZIP:  90046
---------------------------------------------------
Latitude:  34.061611
Longitude:  -118.23944
Map Pin Type:  familyPin
ID:  383
Name:  Rose
Size:  small_10x10
City:  Los Angeles
State:  CA
ZIP:  90012
---------------------------------------------------
Latitude:  34.07711
Longitude:  -118.30755
Map Pin Type:  familyPin
ID:  384
Name:  Talin
Size:  small_10x10
City:  Los Angeles
State:  CA
ZIP:  90004
---------------------------------------------------
Latitude:  42.432686
Longitude:  -83.04422
Map Pin Type:  familyPin
ID:  385
Name:  special food garden
Size:  small_10x10
City:  Detroit
State:  mi
ZIP:  48234
---------------------------------------------------
Latitude:  42.518635
Longitude:  -83.16357
Map Pin Type:  friendPin
ID:  386
Name:  my place
Size:  small_10x10
City:  royal oak
State:  ml
ZIP:  48073
---------------------------------------------------
Latitude:  39.363415
Longitude:  -77.37849
Map Pin Type:  familyPin
ID:  387
Name:  A F Garden
Size:  medium_20x20
City:  Frederick
State:  Ma
ZIP:  21704
---------------------------------------------------
Latitude:  38.893311
Longitude:  -77.014647
Map Pin Type:  familyPin
ID:  388
Name:  Patricia's Garden
Size:  planter_box_etc
City:  Rockville
State:  Ma
ZIP:  20053
---------------------------------------------------
Latitude:  39.328957
Longitude:  -76.63361
Map Pin Type:  friendPin
ID:  389
Name:  Lucky Garden
Size:  small_10x10
City:  Baltimore
State:  Ma
ZIP:  21211
---------------------------------------------------
Latitude:  39.105015
Longitude:  -76.74126
Map Pin Type:  familyPin
ID:  390
Name:  Angela's Garden
Size:  planter_box_etc
City:  Ft Mende
State:  Ma
ZIP:  20755
---------------------------------------------------
Latitude:  39.328957
Longitude:  -76.63361
Map Pin Type:  familyPin
ID:  391
Name:  J W Garden
Size:  planter_box_etc
City:  Baltimore
State:  Ma
ZIP:  21211
---------------------------------------------------
Latitude:  39.376879
Longitude:  -76.7287
Map Pin Type:  friendPin
ID:  392
Name:  Tara's Garden
Size:  planter_box_etc
City:  Baltimore
State:  Ma
ZIP:  21208
---------------------------------------------------
Latitude:  41.8483253
Longitude:  -70.697053
Map Pin Type:  familyPin
ID:  393
Name:  Oscar's Garden
Size:  small_10x10
City:  Jessup
State:  Ma
ZIP:  20994
---------------------------------------------------
Latitude:  39.363456
Longitude:  -76.61142
Map Pin Type:  familyPin
ID:  394
Name:  Allyssa's Garden
Size:  planter_box_etc
City:  Baltimore
State:  Ma
ZIP:  21212
---------------------------------------------------
Latitude:  29.741878
Longitude:  -95.38944
Map Pin Type:  familyPin
ID:  395
Name:  Funplex-Tex Garden
Size:  small_10x10
City:  Houston
State:  TX
ZIP:  77006
---------------------------------------------------
Latitude:  40.985594
Longitude:  -76.63449
Map Pin Type:  familyPin
ID:  396
Name:  Earlston Family MiniFarm
Size:  medium_20x20
City:  Danville
State:  PA
ZIP:  17821
---------------------------------------------------
Latitude:  34.153628
Longitude:  -118.43222
Map Pin Type:  friendPin
ID:  397
Name:  Shared Earth Project
Size:  large_over_20x20
City:  Studio City
State:  CA
ZIP:  91423
---------------------------------------------------
Latitude:  37.10548
Longitude:  -122.1047
Map Pin Type:  familyPin
ID:  398
Name:  SLVFarm
Size:  farm
City:  Brookdale
State:  Ca
ZIP:  95007
---------------------------------------------------
Latitude:  42.343787
Longitude:  -83.05879
Map Pin Type:  familyPin
ID:  399
Name:  Tyron
Size:  small_10x10
City:  Detroit
State:  MI
ZIP:  48201
---------------------------------------------------
Latitude:  42.375787
Longitude:  -83.10849
Map Pin Type:  familyPin
ID:  400
Name:  Healthy Place
Size:  medium_20x20
City:  Detroit
State:  MI
ZIP:  48206
---------------------------------------------------
Latitude:  42.425236
Longitude:  -83.24902
Map Pin Type:  familyPin
ID:  401
Name:  Mamma Mays
Size:  small_10x10
City:  Detroit
State:  MI
ZIP:  48219
---------------------------------------------------
Latitude:  42.426786
Longitude:  -83.14969
Map Pin Type:  familyPin
ID:  402
Name:  Fast food
Size:  small_10x10
City:  Detroit
State:  MI
ZIP:  48221
---------------------------------------------------
Latitude:  42.426786
Longitude:  -83.14969
Map Pin Type:  familyPin
ID:  403
Name:  Mary
Size:  small_10x10
City:  Detroit
State:  MI
ZIP:  48221
---------------------------------------------------
Latitude:  42.388786
Longitude:  -83.1918
Map Pin Type:  familyPin
ID:  404
Name:  NO
Size:  medium_20x20
City:  Detroit
State:  MI
ZIP:  48227
---------------------------------------------------
Latitude:  -33.9248685
Longitude:  18.4240553
Map Pin Type:  friendPin
ID:  405
Name:  Beautiful
Size:  large_over_20x20
City:  Cape Town
State:  Af
ZIP:  8001
---------------------------------------------------
Latitude:  42.388786
Longitude:  -83.1918
Map Pin Type:  familyPin
ID:  406
Name:  Beautiful
Size:  small_10x10
City:  Detroit
State:  MI
ZIP:  48227
---------------------------------------------------
Latitude:  42.427636
Longitude:  -83.19547
Map Pin Type:  familyPin
ID:  407
Name:  Nameless
Size:  small_10x10
City:  Detroit
State:  MI
ZIP:  48235
---------------------------------------------------
Latitude:  42.465275
Longitude:  -83.2264
Map Pin Type:  familyPin
ID:  408
Name:  Henry
Size:  planter_box_etc
City:  Southfield
State:  MI
ZIP:  48075
---------------------------------------------------
Latitude:  42.375787
Longitude:  -83.10849
Map Pin Type:  familyPin
ID:  409
Name:  Sweet Cookie
Size:  small_10x10
City:  Detroit
State:  MI
ZIP:  48206
---------------------------------------------------
Latitude:  42.396736
Longitude:  -83.14152
Map Pin Type:  familyPin
ID:  410
Name:  Pathfinder
Size:  medium_20x20
City:  Detroit
State:  MI
ZIP:  48238
---------------------------------------------------
Latitude:  42.427636
Longitude:  -83.19547
Map Pin Type:  familyPin
ID:  411
Name:  Gloria
Size:  small_10x10
City:  Detroit
State:  MI
ZIP:  48235
---------------------------------------------------
Latitude:  42.396736
Longitude:  -83.14152
Map Pin Type:  familyPin
ID:  412
Name:  Ruby
Size:  medium_20x20
City:  Detroit
State:  MI
ZIP:  48238
---------------------------------------------------
Latitude:  42.355437
Longitude:  -83.21722
Map Pin Type:  familyPin
ID:  413
Name:  Terrence Place
Size:  small_10x10
City:  Detroit
State:  MI
ZIP:  48228
---------------------------------------------------
Latitude:  42.396736
Longitude:  -83.14152
Map Pin Type:  familyPin
ID:  414
Name:  Luther
Size:  small_10x10
City:  Detroit
State:  MI
ZIP:  48238
---------------------------------------------------
Latitude:  42.379019
Longitude:  -83.04483
Map Pin Type:  friendPin
ID:  415
Name:  Shawshank
Size:  small_10x10
City:  Detrpot
State:  MI
ZIP:  48211
---------------------------------------------------
Latitude:  42.375787
Longitude:  -83.10849
Map Pin Type:  friendPin
ID:  416
Name:  Resha's Love
Size:  small_10x10
City:  Detroit
State:  MI
ZIP:  48206
---------------------------------------------------
Latitude:  42.427636
Longitude:  -83.19547
Map Pin Type:  familyPin
ID:  417
Name:  Veggie Garden
Size:  small_10x10
City:  Detroit
State:  MI
ZIP:  48235
---------------------------------------------------
Latitude:  42.375787
Longitude:  -83.10849
Map Pin Type:  friendPin
ID:  418
Name:  Love Garden
Size:  small_10x10
City:  Detroit
State:  MI
ZIP:  48206
---------------------------------------------------
Latitude:  42.425236
Longitude:  -83.24902
Map Pin Type:  familyPin
ID:  419
Name:  Picka
Size:  small_10x10
City:  Detroit
State:  MI
ZIP:  48219
---------------------------------------------------
Latitude:  42.355437
Longitude:  -83.21722
Map Pin Type:  familyPin
ID:  420
Name:  Nameless
Size:  medium_20x20
City:  Detroit
State:  MI
ZIP:  48228
---------------------------------------------------
Latitude:  42.426786
Longitude:  -83.14969
Map Pin Type:  friendPin
ID:  421
Name:  Garden of Love
Size:  medium_20x20
City:  Detroit
State:  MI
ZIP:  48221
---------------------------------------------------
Latitude:  44.877164
Longitude:  -93.28124
Map Pin Type:  familyPin
ID:  422
Name:  AV Garden
Size:  medium_20x20
City:  Richfield
State:  MN
ZIP:  55423
---------------------------------------------------
Latitude:  34.090259
Longitude:  -118.29455
Map Pin Type:  familyPin
ID:  423
Name:  Buieta Garden
Size:  large_over_20x20
City:  Los Angeles
State:  CA
ZIP:  90029
---------------------------------------------------
Latitude:  34.098908
Longitude:  -118.36241
Map Pin Type:  friendPin
ID:  424
Name:  Clean and Neat
Size:  medium_20x20
City:  Los Angeles
State:  CA
ZIP:  90046
---------------------------------------------------
Latitude:  34.07711
Longitude:  -118.30755
Map Pin Type:  familyPin
ID:  425
Name:  L Garden
Size:  medium_20x20
City:  Los Angeles
State:  CA
ZIP:  90004
---------------------------------------------------
Latitude:  34.098908
Longitude:  -118.36241
Map Pin Type:  familyPin
ID:  426
Name:  Hunter's Garden
Size:  small_10x10
City:  Los Angeles
State:  CA
ZIP:  90046
---------------------------------------------------
Latitude:  42.662902
Longitude:  -82.99392
Map Pin Type:  friendPin
ID:  427
Name:  Mary place
Size:  planter_box_etc
City:  Shelby township
State:  ar
ZIP:  48315
---------------------------------------------------
Latitude:  42.465886
Longitude:  -83.056
Map Pin Type:  familyPin
ID:  428
Name:  THE FARM
Size:  small_10x10
City:  Warren
State:  mi
ZIP:  48091
---------------------------------------------------
Latitude:  42.427636
Longitude:  -83.19547
Map Pin Type:  familyPin
ID:  429
Name:  good stuff
Size:  planter_box_etc
City:  Detroit
State:  mi
ZIP:  48235
---------------------------------------------------
Latitude:  42.348937
Longitude:  -83.08994
Map Pin Type:  familyPin
ID:  430
Name:  Reece&amp;amp;jenning
Size:  small_10x10
City:  detroit
State:  mi
ZIP:  48208
---------------------------------------------------
Latitude:  32.589553
Longitude:  -85.53991
Map Pin Type:  friendPin
ID:  431
Name:  Community Market Garden
Size:  large_over_20x20
City:  Auburn
State:  AL
ZIP:  36832
---------------------------------------------------
Latitude:  42.6625901
Longitude:  -71.4595092
Map Pin Type:  familyPin
ID:  432
Name:  Wendy's Garden
Size:  planter_box_etc
City:  Forest Hill
State:  Ma
ZIP:  21-5-
---------------------------------------------------
Latitude:  40.002547
Longitude:  -76.59646
Map Pin Type:  familyPin
ID:  433
Name:  Lindsay's Garden
Size:  medium_20x20
City:  York
State:  Pe
ZIP:  17406
---------------------------------------------------
Latitude:  32.899711
Longitude:  35.088475
Map Pin Type:  familyPin
ID:  434
Name:  Rebecca's Garden
Size:  planter_box_etc
City:  Baltimore
State:  Ma
ZIP:  21200
---------------------------------------------------
Latitude:  39.295306
Longitude:  -76.62118
Map Pin Type:  familyPin
ID:  435
Name:  Carly's Garden
Size:  small_10x10
City:  Baltimore
State:  Ma
ZIP:  21201
---------------------------------------------------
Latitude:  -34.970486
Longitude:  149.0298766
Map Pin Type:  familyPin
ID:  436
Name:  Pacaridge
Size:  small_10x10
City:  Murrumbateman
State:  NS
ZIP:  2582
---------------------------------------------------
Latitude:  44.911564
Longitude:  -93.31947
Map Pin Type:  familyPin
ID:  437
Name:  Vrzy's Veggies
Size:  medium_20x20
City:  Edina
State:  MN
ZIP:  55410
---------------------------------------------------
Latitude:  38.900394
Longitude:  -77.05126
Map Pin Type:  familyPin
ID:  438
Name:  Paul's Garden
Size:  small_10x10
City:  Washington
State:  D.
ZIP:  20037
---------------------------------------------------
Latitude:  39.795301
Longitude:  -76.97727
Map Pin Type:  familyPin
ID:  439
Name:  Erica's Garden
Size:  small_10x10
City:  Hanover
State:  Pe
ZIP:  17331
---------------------------------------------------
Latitude:  39.780323
Longitude:  -76.74785
Map Pin Type:  familyPin
ID:  440
Name:  Sarah Smile
Size:  small_10x10
City:  Glen Rock
State:  Pe
ZIP:  17327
---------------------------------------------------
Latitude:  50.4547222
Longitude:  -104.6066667
Map Pin Type:  familyPin
ID:  441
Name:  The PEAS Place
Size:  large_over_20x20
City:  Regina
State:  SK
ZIP:  S4T 3
---------------------------------------------------
Latitude:  30.501272
Longitude:  -97.83087
Map Pin Type:  familyPin
ID:  442
Name:  A Labor of Love
Size:  medium_20x20
City:  Cedar Park
State:  TX
ZIP:  78613
---------------------------------------------------
Latitude:  39.363456
Longitude:  -76.61142
Map Pin Type:  familyPin
ID:  443
Name:  Our first real garden
Size:  medium_20x20
City:  Baltimore
State:  MD
ZIP:  21212
---------------------------------------------------
Latitude:  35.34377
Longitude:  -97.48596
Map Pin Type:  friendPin
ID:  444
Name:  Family Food
Size:  medium_20x20
City:  Moore
State:  OK
ZIP:  73160
---------------------------------------------------
Latitude:  32.825628
Longitude:  -96.74872
Map Pin Type:  familyPin
ID:  445
Name:  turklandia
Size:  large_over_20x20
City:  Dallas
State:  TX
ZIP:  75214
---------------------------------------------------
Latitude:  39.936562
Longitude:  -75.15409
Map Pin Type:  friendPin
ID:  446
Name:  Skinny bull farm
Size:  medium_20x20
City:  Philadelphia
State:  Pa
ZIP:  19147
---------------------------------------------------
Latitude:  33.732368
Longitude:  -118.28905
Map Pin Type:  familyPin
ID:  447
Name:  Annie's Garden
Size:  medium_20x20
City:  San Pedro
State:  CA
ZIP:  90731
---------------------------------------------------
Latitude:  39.296507
Longitude:  -76.60693
Map Pin Type:  friendPin
ID:  448
Name:  House on the Park's Garden
Size:  planter_box_etc
City:  Baltimore
State:  MD
ZIP:  21202
---------------------------------------------------
Latitude:  33.450215
Longitude:  -88.82383
Map Pin Type:  familyPin
ID:  449
Name:  Josey park community garden Scales street CSA garden
Size:  large_over_20x20
City:  Starkville
State:  MS
ZIP:  39759
---------------------------------------------------
Latitude:  39.013638
Longitude:  -94.59471
Map Pin Type:  familyPin
ID:  450
Name:  3 Trails Farm
Size:  farm
City:  Kansas City
State:  MO
ZIP:  64113
---------------------------------------------------
Latitude:  38.966056
Longitude:  -94.59641
Map Pin Type:  familyPin
ID:  451
Name:  3 Trails Farm
Size:  farm
City:  Kansas City
State:  MO
ZIP:  64114
---------------------------------------------------
Latitude:  39.643637
Longitude:  -104.90406
Map Pin Type:  familyPin
ID:  452
Name:  Mile High Urban FarmScaping
Size:  medium_20x20
City:  Denver
State:  Co
ZIP:  80237
---------------------------------------------------
Latitude:  27.7
Longitude:  85.3333333
Map Pin Type:  friendPin
ID:  453
Name:  Pathivara Farm
Size:  medium_20x20
City:  Kathmandu
State:  Ne
ZIP:  
---------------------------------------------------
Latitude:  42.426786
Longitude:  -83.14969
Map Pin Type:  familyPin
ID:  454
Name:  Richardson-Bey
Size:  planter_box_etc
City:  Detroit
State:  MI
ZIP:  48221
---------------------------------------------------
Latitude:  42.427636
Longitude:  -83.19547
Map Pin Type:  familyPin
ID:  455
Name:  Sasha
Size:  small_10x10
City:  Detroit
State:  MI
ZIP:  48235
---------------------------------------------------
Latitude:  42.331427
Longitude:  -83.0457538
Map Pin Type:  familyPin
ID:  456
Name:  Girlfriends Place
Size:  medium_20x20
City:  Detroit
State:  MI
ZIP:  49219
---------------------------------------------------
Latitude:  42.425236
Longitude:  -83.24902
Map Pin Type:  familyPin
ID:  457
Name:  Horn of Plenty
Size:  large_over_20x20
City:  Detroit
State:  MI
ZIP:  48219
---------------------------------------------------
Latitude:  42.426786
Longitude:  -83.14969
Map Pin Type:  familyPin
ID:  458
Name:  D.A.R.
Size:  planter_box_etc
City:  Detroit
State:  MI
ZIP:  48221
---------------------------------------------------
Latitude:  42.396736
Longitude:  -83.14152
Map Pin Type:  familyPin
ID:  459
Name:  Bostic
Size:  small_10x10
City:  Detroit
State:  MI
ZIP:  48238
---------------------------------------------------
Latitude:  42.426786
Longitude:  -83.14969
Map Pin Type:  friendPin
ID:  460
Name:  Brown
Size:  small_10x10
City:  Detroit
State:  MI
ZIP:  48221
---------------------------------------------------
Latitude:  42.410037
Longitude:  -83.05826
Map Pin Type:  friendPin
ID:  461
Name:  Little John
Size:  large_over_20x20
City:  Detroit
State:  MI
ZIP:  48212
---------------------------------------------------
Latitude:  42.426786
Longitude:  -83.14969
Map Pin Type:  familyPin
ID:  462
Name:  Green's Haven
Size:  medium_20x20
City:  Detroit
State:  MI
ZIP:  48221
---------------------------------------------------
Latitude:  42.432686
Longitude:  -83.04422
Map Pin Type:  familyPin
ID:  463
Name:  Household
Size:  planter_box_etc
City:  Detroit
State:  MI
ZIP:  48234
---------------------------------------------------
Latitude:  40.606337
Longitude:  -74.14513
Map Pin Type:  familyPin
ID:  464
Name:  CityPastures (www.citypastures.com)
Size:  medium_20x20
City:  STATEN ISLAND
State:  Ne
ZIP:  10314
---------------------------------------------------
Latitude:  40.6740861
Longitude:  -73.7448437
Map Pin Type:  friendPin
ID:  465
Name:  The Dream
Size:  planter_box_etc
City:  Laurelton
State:  NY
ZIP:  
---------------------------------------------------
Latitude:  35.101525
Longitude:  -89.98543
Map Pin Type:  familyPin
ID:  466
Name:  home grown organics
Size:  large_over_20x20
City:  memphis
State:  tn
ZIP:  38114
---------------------------------------------------
Latitude:  42.370519
Longitude:  -71.08443
Map Pin Type:  familyPin
ID:  467
Name:  Container Garden
Size:  planter_box_etc
City:  Cambridge
State:  MA
ZIP:  02141
---------------------------------------------------
Latitude:  42.254087
Longitude:  -89.01776
Map Pin Type:  familyPin
ID:  468
Name:  A Dandy Garden 2012
Size:  small_10x10
City:  Rockford
State:  Il
ZIP:  61108
---------------------------------------------------
Latitude:  38.792281
Longitude:  -76.781
Map Pin Type:  familyPin
ID:  469
Name:  Grateful Roots
Size:  small_10x10
City:  Upper Marlboro
State:  Ma
ZIP:  20772
---------------------------------------------------
Latitude:  39.46706
Longitude:  -87.34452
Map Pin Type:  familyPin
ID:  470
Name:  Taylor farm
Size:  large_over_20x20
City:  Terre Haute
State:  In
ZIP:  47803
